{
"totCnt": 6203,
"hasMore": true,
"data":[
{"baseDate": "20200525", "macAddress": "765da2c1f221dc69db26c0578505173a93db00a4a08ffba79a3082b0deba918b", "apGroupName": "장수물공원", "installLocationDetail": "CCTV POLE", "category": "공원", "categoryDetail": "공원", "addressDong": "제주특별자치도 제주시 연동", "addressDetail": "제주시 연동 310-33 (연동 311-33) ", "latitude": "33.491515", "longitude": "126.4989"},{"baseDate": "20200525", "macAddress": "c3fb70e1b4ea62cbd68731d083fc9620b18f2151eb104b4ff5ba1236e6d6919d", "apGroupName": "버스정류소_제주중앙여자고등학교(광양방면)", "installLocationDetail": "사거리 북동쪽 가로등", "category": "버스정류소", "categoryDetail": "버스정류소", "addressDong": "제주특별자치도 제주시 이도이동", "addressDetail": "제주시 이도2동 1987-5 (중앙로359)", "latitude": "33.488942", "longitude": "126.53925"},{"baseDate": "20200525", "macAddress": "cdb51331919d780df1a26f3e7b62e30ef342b08d70dd500d5ee20f2b3c37d097", "apGroupName": "서빈백사해수욕장", "installLocationDetail": "화장실 및 탈의실 옆서측 KT 강관주 - 남", "category": "해변", "categoryDetail": "해변", "addressDong": "제주특별자치도 제주시 우도면 연평리", "addressDetail": "제주시 우도면 연평리 2512-3", "latitude": "33.50249", "longitude": "126.943281"},{"baseDate": "20200525", "macAddress": "824b16537c8f7df244cc92acebd1a3b2f96f8de8c9fd85c8261c7aa7e4226763", "apGroupName": "우도 망루등대", "installLocationDetail": "가로등 - 서", "category": "관광지", "categoryDetail": "공영관광지", "addressDong": "제주특별자치도 제주시 우도면", "addressDetail": "제주시  우도면  연평리 790-1    ", "latitude": "33.524586", "longitude": "126.952259"},{"baseDate": "20200525", "macAddress": "4069e36d6d123ae6acb5eea178bde57abaa92407304cd1d5cf7e8c26631e90af", "apGroupName": "아랑조을거리", "installLocationDetail": "방범CCTV 폴대- 북", "category": "테마거리", "categoryDetail": "테마거리", "addressDong": "제주특별자치도 서귀포시 서귀동", "addressDetail": "서귀포시 서귀동 320-2 앞  ", "latitude": "33.249415", "longitude": "126.559085"},{"baseDate": "20200525", "macAddress": "88fe83fceb1af224145d7e019deaf6103c62c4fe7d8c38a8952fb92420551906", "apGroupName": "전기차충전소_벤처마루 후문", "installLocationDetail": "옥상에서 벤처마루전기차충전소 방향 지향성 1개", "category": "전기차충전소", "categoryDetail": "전기차충전소", "addressDong": "제주특별자치도 제주시 이도이동", "addressDetail": "제주시 이도2동 1176-53(동광로2길 13)", "latitude": "33.500551", "longitude": "126.53041"},{"baseDate": "20200525", "macAddress": "8c82423b90a463009da25c0b58967e1056d9cfca4fd77ab5df1a4cf7e9bcc78c", "apGroupName": "전기차충전소_문예회관", "installLocationDetail": "현수막 구조물에 충전소 방향 지향 1개", "category": "전기차충전소", "categoryDetail": "전기차충전소", "addressDong": "제주특별자치도 제주시 일도이동", "addressDetail": "제주시 일도2동 852(동광로 69)", "latitude": "33.504735", "longitude": "126.534943"},{"baseDate": "20200525", "macAddress": "054f46fd75469097600c9efd82359bf74b3bf2340fcfa020f7b64c408fea672c", "apGroupName": "버스정류소_대유대림아파트[동] ", "installLocationDetail": "정류장 내부 지붕에 무지향 1개", "category": "버스정류소", "categoryDetail": "버스정류소", "addressDong": "제주특별자치도 제주시 일도이동", "addressDetail": "제주시 일도2동 113-7(남광로 181)", "latitude": "33.502436", "longitude": "126.55277"},{"baseDate": "20200525", "macAddress": "786b0ecbf438b6985e3f66d76e349dc02d255e43a49f6d59e919e8e2deaa2436", "apGroupName": "천지연폭포", "installLocationDetail": "매표소 외벽-동", "category": "관광지", "categoryDetail": "공영관광지", "addressDong": "제주특별자치도 서귀포시 서홍동", "addressDetail": "서귀포시 서홍동 666-1 ", "latitude": "33.244825", "longitude": "126.560125"},{"baseDate": "20200525", "macAddress": "46fdba7294875cc7365b2739c5016a2c88c6e498e0e378d7043193c60562ead8", "apGroupName": " 10-1코스", "installLocationDetail": "가파리사무소 외벽  -남동", "category": "올레코스", "categoryDetail": "올레코스", "addressDong": "제주특별자치도 서귀포시 대정읍 가파리", "addressDetail": "서귀포시 대정읍 가파리 70-1  (가파로 73)", "latitude": "33.166216", "longitude": "126.273977"},{"baseDate": "20200525", "macAddress": "2d969c3d8e8139c75ad912116917379f7610d7b8cd914490c96cf57e568cdb76", "apGroupName": "베니스랜드", "installLocationDetail": "곤돌라매표소, 카페", "category": "관광지", "categoryDetail": "사설관광지", "addressDong": "제주특별자치도 서귀포시 성산읍 난산리", "addressDetail": "서귀포시 성산읍 난산리 2575", "latitude": "33.415613", "longitude": "126.8406"},{"baseDate": "20200525", "macAddress": "bfda8eaa40b361b1dcbdd7809b7d363188a16598d275fba006b86b166b99e756", "apGroupName": "서귀포 치유의 숲", "installLocationDetail": "방문자센타 옥상 - 남서", "category": "숲길", "categoryDetail": "숲길", "addressDong": "제주특별자치도 서귀포시 호근동", "addressDetail": "서귀포시 산록남로 2271", "latitude": "33.291695", "longitude": "126.527521"},{"baseDate": "20200525", "macAddress": "fa5bb1d64f3884d0a0999d21bbcfb1c09d279c15b7c62d778c1d230332d3bc8a", "apGroupName": "전기차충전소_표선해수욕장 주차장 ", "installLocationDetail": "IP주", "category": "전기차충전소", "categoryDetail": "전기차충전소", "addressDong": "제주특별자치도 서귀포시 표선면 표선리", "addressDetail": "서귀포시 표선면 민속해안로 631-45", "latitude": "33.325071", "longitude": "126.841487"},{"baseDate": "20200525", "macAddress": "fd74ed58963168ff59419cfffaa8c8c87ae4b8b8ab365fde844b007277109c87", "apGroupName": "버스정류소_화북남문[북]", "installLocationDetail": "버스정류장 지붕위", "category": "버스정류소", "categoryDetail": "버스정류소", "addressDong": "제주특별자치도 제주시 화북일동", "addressDetail": "제주시 화북1동 1984-10", "latitude": "33.518903", "longitude": "126.565125"},{"baseDate": "20200525", "macAddress": "95a477b429524ff21cc1af09e3a1ba6686e81ef6f39082b9606d6d45ec7f5083", "apGroupName": "한라생태숲", "installLocationDetail": " 안내소 벽면 북", "category": "숲길", "categoryDetail": "숲길", "addressDong": "제주특별자치도 제주시 용강동", "addressDetail": "제주시 516로 2596(용강동)", "latitude": "33.430931", "longitude": "126.596935"},{"baseDate": "20200525", "macAddress": "d3f517e32640e50a47459ebc395d0a315dfd25c3632b1389879d0d992ff7c60c", "apGroupName": "버스정류소_대천환승정류장(종점)", "installLocationDetail": "대천동버스정류장", "category": "버스정류소", "categoryDetail": "버스정류소", "addressDong": "제주특별자치도 제주시 구좌읍 송당리", "addressDetail": "제주시 구좌읍 대천길 2-2 앞(송당리 산 126-3) ", "latitude": "33.436243", "longitude": "126.736818"},{"baseDate": "20200525", "macAddress": "b00f1a2467e79e5c868cc9f6217985bc406244c06653383b55be4f431b542775", "apGroupName": "로케디오월드", "installLocationDetail": "매표소", "category": "관광지", "categoryDetail": "사설관광지", "addressDong": "제주특별자치도 제주시 애월읍 봉성리", "addressDetail": "제주시 애월읍 화전길 3 ", "latitude": "33.352171", "longitude": "126.360491"},{"baseDate": "20200525", "macAddress": "23c80fd5f31a6152ac607922fc296978048dcde65bac3834723072d31b44a995", "apGroupName": "18코스", "installLocationDetail": "삼양해수욕장 동쪽 공중화장실 북동", "category": "올레코스", "categoryDetail": "올레코스", "addressDong": "제주특별자치도 제주시 삼양일동", "addressDetail": "제주시 서흘1길 32 ", "latitude": "33.529512", "longitude": "126.589086"},{"baseDate": "20200525", "macAddress": "c0433d882b4c916579c2bfe61710860bd195eb07881fd2192b0f7ec79bf04517", "apGroupName": "세화 해변", "installLocationDetail": "남자화장실 북", "category": "해변", "categoryDetail": "해변", "addressDong": "제주특별자치도 제주시 구좌읍 세화리", "addressDetail": "제주시 구좌읍 해맞이해안로 1391 x", "latitude": "33.528317", "longitude": "126.857243"},{"baseDate": "20200525", "macAddress": "c57a2655b81b8806a7b9256a656dee1359ea99d27ddf844c07a576b0d0dff500", "apGroupName": "제주동문시장", "installLocationDetail": "골목시장 간판 북쪽", "category": "전통시장", "categoryDetail": "전통시장", "addressDong": "제주특별자치도 제주시 이도일동", "addressDetail": "제주시 중앙로 63-10", "latitude": "33.51198", "longitude": "126.52527"},{"baseDate": "20200525", "macAddress": "225ae54d33fbb5175af9cb759b1abdba7051f0c0094dc2115dbcff1bd31e8559", "apGroupName": "버스정류소_제주여자중고등학교(아라방면)", "installLocationDetail": "본가 옆 재난감시(하천감시)CCTV 옆 ip주", "category": "버스정류소", "categoryDetail": "버스정류소", "addressDong": "제주특별자치도 제주시 아라이동", "addressDetail": "제주시 아라2동 1370-4 (간월동로 6)", "latitude": "33.484549", "longitude": "126.543084"},{"baseDate": "20200525", "macAddress": "f3973fea4a12e07a7e415b022c4b5ea2bdd9d8e24279c61790a3852b35c57c6c", "apGroupName": "서귀포시 자기주도학습지원센터", "installLocationDetail": "1층 로비", "category": "공공기관", "categoryDetail": "학습센터", "addressDong": "제주특별자치도 서귀포시 동홍동", "addressDetail": "서귀포시 동홍동 402-3", "latitude": "33.251266", "longitude": "126.570292"},{"baseDate": "20200525", "macAddress": "a6346b49847eaabafe20dac7114cb24d716b4bd2c186d892b306362d6e6e1d79", "apGroupName": "전기차충전소_GS25 대포점", "installLocationDetail": "전기인입 IP주", "category": "전기차충전소", "categoryDetail": "전기차충전소", "addressDong": "제주특별자치도 서귀포시 대포동", "addressDetail": "서귀포시 대포동 2411-1", "latitude": "33.239154", "longitude": "126.43623"},{"baseDate": "20200525", "macAddress": "4fd4d4c98628807582ebc97a41bdb3476f2413d556edc70b6832156efb32f18a", "apGroupName": "전기차충전소_성산읍사무소", "installLocationDetail": "건물 모서리 벽-1", "category": "전기차충전소", "categoryDetail": "전기차충전소", "addressDong": "제주특별자치도 서귀포시 성산읍 고성리", "addressDetail": "서귀포시 성산읍 고성리 1023-2", "latitude": "33.442328", "longitude": "126.911163"},{"baseDate": "20200525", "macAddress": "e4cbeeb8ea10701373c89eca132782b8dfcacbb70b4dc90775b3c8bbf715e470", "apGroupName": "전기차충전소_서귀포농업기술센터", "installLocationDetail": "건물 외벽 - 서", "category": "전기차충전소", "categoryDetail": "전기차충전소", "addressDong": "제주특별자치도 서귀포시 남원읍 하례리", "addressDetail": "서귀포시 남원읍 하례리 1558", "latitude": "33.28735", "longitude": "126.60727"},{"baseDate": "20200525", "macAddress": "bf6e563f66716fa7112389c0a83f448a00d95fb7facfb512949bfe525d29cc22", "apGroupName": "알프스얼음보석궁전", "installLocationDetail": "1층 복도", "category": "관광지", "categoryDetail": "공영관광지", "addressDong": "제주특별자치도 제주시 한경면 청수리", "addressDetail": " 제주시 한경면 청수리 958", "latitude": "33.29121", "longitude": "126.249268"},{"baseDate": "20200525", "macAddress": "ae8d376c3674890c2cbec92514d5f166e155b804596debc16c1c3914d16086f8", "apGroupName": "지하상가", "installLocationDetail": "3&4 출구 홀 동쪽(지하상가)", "category": "전통시장", "categoryDetail": "지하상가", "addressDong": "제주특별자치도 제주시 일도일동", "addressDetail": "제주시 일도1동 1425-3", "latitude": "33.513072", "longitude": "126.526476"},{"baseDate": "20200525", "macAddress": "279c5aa5883d6a8bede6fe7a7a02a4ba8cc7f8db20be548ea3ce94190a9ed3b6", "apGroupName": "한라산국립공원", "installLocationDetail": "탐방안내소 1층 전시관(전시관)", "category": "관광지", "categoryDetail": "공영관광지", "addressDong": "제주특별자치도 제주시 해안동", "addressDetail": "제주시 해안동 산 220-13", "latitude": "33.39285", "longitude": "126.495262"},{"baseDate": "20200525", "macAddress": "433ce67e5e2195d15c1ae494e95da6dc8c66bd26de0eb48f3f53a181ae7c3471", "apGroupName": "한담해변", "installLocationDetail": " KT IP주", "category": "해변", "categoryDetail": "해변", "addressDong": "제주특별자치도 제주시 애월읍 애월리", "addressDetail": "제주시 애월읍 애월리 2489-5", "latitude": "33.462169", "longitude": "126.310489"},{"baseDate": "20200525", "macAddress": "878494b3e0948e19f3b1f60d29d1240f8bce33e027394b25ef231eed8e673902", "apGroupName": "한담해변", "installLocationDetail": "한담공원 주차장 화장실 북", "category": "해변", "categoryDetail": "해변", "addressDong": "제주특별자치도 제주시 애월읍 애월리", "addressDetail": "제주시 애월읍 애월리 2459-1 ", "latitude": "33.460108", "longitude": "126.310655"},{"baseDate": "20200525", "macAddress": "da34508f685ffbdfa43d318e4c4d5d8881c0fc592b7fb2451964919e428151d7", "apGroupName": "용담해안 카페촌거리", "installLocationDetail": "가로등제어기 옆 KT IP주 서", "category": "테마거리", "categoryDetail": "테마거리", "addressDong": "제주특별자치도 제주시 용담삼동", "addressDetail": "제주시 서해안로 452 앞 ", "latitude": "33.517211", "longitude": "126.486309"},{"baseDate": "20200525", "macAddress": "63a94ec20bfe9dad15132c3d0852b1754987e62f1a4dfb14de45af12788a8953", "apGroupName": "삼성혈 문화의 거리", "installLocationDetail": " 이도일동주민센터 옥상 남", "category": "테마거리", "categoryDetail": "테마거리", "addressDong": "제주특별자치도 제주시 이도일동", "addressDetail": "제주시 중앙로 23길 20", "latitude": "33.50664", "longitude": "126.52751"},{"baseDate": "20200525", "macAddress": "5b6b3761357bb8d9c42461052b0d3727fabbfc5d886e229e10d257dfaf64b884", "apGroupName": "문화의 거리", "installLocationDetail": " 버스정류장 서", "category": "테마거리", "categoryDetail": "테마거리", "addressDong": "제주특별자치도 제주시 삼도이동", "addressDetail": "제주시 관덕로 16-1", "latitude": "33.512822", "longitude": "126.520544"},{"baseDate": "20200525", "macAddress": "d1a20e9de94eb027d19a39f4a640671c4e306e9341dd68610bf7fe3a411d4521", "apGroupName": "한림종합운동장 ", "installLocationDetail": " 한림체육관 옥상 북서", "category": "체육시설", "categoryDetail": "체육시설", "addressDong": "제주특별자치도 제주시 한림읍 한림리", "addressDetail": "제주시 한림읍 한림중앙로 71-9", "latitude": "33.409221", "longitude": "126.269588"},{"baseDate": "20200525", "macAddress": "8cf52d66f1d49ff1d1c62ce7aa2bd4221294be38a3cd6fc6189d2ecbb8cda1db", "apGroupName": "13코스 ", "installLocationDetail": "KT IP주(낙천의자공원 입구)", "category": "올레코스", "categoryDetail": "올레코스", "addressDong": "제주특별자치도 제주시 한경면 낙천리", "addressDetail": "제주시 한경면 낙천리 1909-1 ", "latitude": "33.32777", "longitude": "126.225796"},{"baseDate": "20200525", "macAddress": "b84ca5ada19600e78053dc814b1af0fa6d5f15ce1e7da4d66c47cf098f6e0be2", "apGroupName": "제주동문시장", "installLocationDetail": " 44번 기영상회 위(아케이드상가) ", "category": "전통시장", "categoryDetail": "전통시장", "addressDong": "제주특별자치도 제주시 이도일동", "addressDetail": "제주시 관덕로 14길 20", "latitude": "33.512719", "longitude": "126.526637"},{"baseDate": "20200525", "macAddress": "cbdb4c643856540507d5f10905fa1fc4c20221a0154b72836d7a659cb6fff4f7", "apGroupName": "버스정류소_고산환승정류장(고산성당 앞)[동] ", "installLocationDetail": "고산1리고산성당앞버스정류장 ", "category": "버스정류소", "categoryDetail": "버스정류소", "addressDong": "제주특별자치도 제주시 한경면 고산리", "addressDetail": "제주시 한경면 고산로 4 앞(고산리 3993) ", "latitude": "33.300915", "longitude": "126.180301"},{"baseDate": "20200525", "macAddress": "d0b2bfeec0867dcb0c907a45ddffe54131aeeb12eaf29f0519d1e018ed9722b3", "apGroupName": "절물자연휴양림", "installLocationDetail": "목공예체험장 옥탑 북", "category": "관광지", "categoryDetail": "공영관광지", "addressDong": "제주특별자치도 제주시 봉개동", "addressDetail": "제주시 명림로 584(봉개동 산78-1) ", "latitude": "33.44009", "longitude": "126.625707"},{"baseDate": "20200525", "macAddress": "d3ad2e8beb500c7f6991ad323d055c897e8fa860597854e2b26179334c0fda59", "apGroupName": "화순 금모래해변", "installLocationDetail": "올레안내소 외벽 동", "category": "해변", "categoryDetail": "해변", "addressDong": "제주특별자치도 서귀포시 안덕면 화순리", "addressDetail": "서귀포시 안덕면 화순리 776-8번지      ", "latitude": "33.239301", "longitude": "126.336119"},{"baseDate": "20200525", "macAddress": "c3c6c47d87352550e081ee21fa28218385962ec8e1d93e1dd0ddcf18902badcf", "apGroupName": "믿거나말거나박물관", "installLocationDetail": "건물외벽", "category": "관광지", "categoryDetail": "사설관광지", "addressDong": "제주특별자치도 서귀포시 색달동", "addressDetail": "서귀포시 색달동2864-2  ", "latitude": "33.25125", "longitude": "126.413401"},{"baseDate": "20200525", "macAddress": "f83c85762617c64f49d4c71f9bebd9df479e61f916f7ba504549b2c7f203db65", "apGroupName": "버스정류소_하례환승정류장(하례리입구) ", "installLocationDetail": "버스정류장 상부", "category": "버스정류소", "categoryDetail": "버스정류소", "addressDong": "제주특별자치도 서귀포시 상효동", "addressDetail": "서귀포시 상효동 1122-5    ", "latitude": "33.299998", "longitude": "126.600702"},{"baseDate": "20200525", "macAddress": "c1ad031b2072512fbee810fbd78356ffd22a71d49c26d433b8d855576aaa639b", "apGroupName": "성산일출봉", "installLocationDetail": "화장실 외벽 동", "category": "관광지", "categoryDetail": "공영관광지", "addressDong": "제주특별자치도 서귀포시 성산읍 성산리", "addressDetail": "서귀포시 성산읍 성산리 104-1  ", "latitude": "33.462763", "longitude": "126.936127"},{"baseDate": "20200525", "macAddress": "6d401ae242c1362ef561f0636b056adb5dd3ee088c8e824c1aaf1e6dc8d88452", "apGroupName": "큰엉(남원관광지구)", "installLocationDetail": "화장실외벽 서", "category": "관광지", "categoryDetail": "공영관광지", "addressDong": "제주특별자치도 서귀포시 남원읍", "addressDetail": "서귀포시 남원읍 태위로 522-17", "latitude": "33.272988", "longitude": "126.703589"},{"baseDate": "20200525", "macAddress": "32a601c211d44f18ad2806ff19547d6725e4d98e5e45b2f190b2ffb27a1bb781", "apGroupName": "전기차충전소_동부소방서", "installLocationDetail": "공기충전실 외벽 ", "category": "전기차충전소", "categoryDetail": "전기차충전소", "addressDong": "제주특별자치도 서귀포시 성산읍 오조리", "addressDetail": "서귀포시 성산읍 일주동로 4120번길 7", "latitude": "33.460288", "longitude": "126.909986"},{"baseDate": "20200525", "macAddress": "ab9d0d76fe2b6d3094c24804f23f689624cdf2342a4f308d2b4aba2143323d5d", "apGroupName": "전기차충전소_정혜재활원", "installLocationDetail": "충전소  가림막 상단", "category": "전기차충전소", "categoryDetail": "전기차충전소", "addressDong": "제주특별자치도 서귀포시 토평동", "addressDetail": "서귀포시 인정오름로85번길 41(토평동 2895)", "latitude": "33.284386", "longitude": "126.581102"},{"baseDate": "20200525", "macAddress": "2f832c0a16430e9d215f0cb133a55f1f9e8f96fdb9744db01ffad4f19b4b1f6e", "apGroupName": "형제해안도로 ", "installLocationDetail": "IP주 상부 - 서", "category": "해변", "categoryDetail": "해변", "addressDong": "제주특별자치도 서귀포시 대정읍 상모리", "addressDetail": "서귀포시 대정읍 상모리 165 ", "latitude": "33.2059", "longitude": "126.288587"},{"baseDate": "20200525", "macAddress": "e874c09a3e622843c742618d8bfdb2bc81e418dfe425a7e8a919881a655470e3", "apGroupName": "형제해안도로 ", "installLocationDetail": "IP주 상부 - 동", "category": "해변", "categoryDetail": "해변", "addressDong": "제주특별자치도 서귀포시 대정읍 상모리", "addressDetail": "서귀포시 대정읍 상모리 165 ", "latitude": "33.205906", "longitude": "126.289764"},{"baseDate": "20200525", "macAddress": "ce61647eb51aa7d35bde237e03e39534b0bfb07d89283ec3d6eca42c9a9468c8", "apGroupName": "비블리아성서식물원", "installLocationDetail": "입구 기둥-주차장방향 남", "category": "관광지", "categoryDetail": "사설관광지", "addressDong": "제주특별자치도 제주시 한림읍 상명리", "addressDetail": "제주시 한림읍 상명리 1191-5", "latitude": "33.35565", "longitude": "126.275265"},{"baseDate": "20200525", "macAddress": "6583c12851169592b790845cbbe63e4498877f23adf3762798a31188133f6934", "apGroupName": "이중섭거리", "installLocationDetail": "KT 주", "category": "테마거리", "categoryDetail": "테마거리", "addressDong": "제주특별자치도 서귀포시 서귀동", "addressDetail": "서귀포시 서귀동 523-2  ", "latitude": "33.245521", "longitude": "126.564512"},{"baseDate": "20200525", "macAddress": "e048aec5c9db5001ce50586fcb1dbde779a70d511ac42a2181cb93f0c3676c8d", "apGroupName": "이중섭거리", "installLocationDetail": "CCTV POLE 상부 - 서", "category": "테마거리", "categoryDetail": "테마거리", "addressDong": "제주특별자치도 서귀포시 서귀동", "addressDetail": "서귀포시 명동로 19-1(서귀동 417-2)", "latitude": "33.247216", "longitude": "126.563467"},{"baseDate": "20200525", "macAddress": "9385da4712312fbbbf8a5136e281a2b9b9eed5c77180e600c5ee39fa180c050f", "apGroupName": "18코스", "installLocationDetail": "CCTV Pole 남쪽화장실방향", "category": "올레코스", "categoryDetail": "올레코스", "addressDong": "제주특별자치도 제주시 화북일동", "addressDetail": "제주시 화북일동 4269-9 (금산5길 30-5 앞)", "latitude": "33.525282", "longitude": "126.564683"},{"baseDate": "20200525", "macAddress": "b6bfdb10c5d1bea0b6d104d2505b5ab12d1e370e456608a4ce808def81487741", "apGroupName": "버스정류소_애월고등학교[북]", "installLocationDetail": "버스정류장 상부", "category": "버스정류소", "categoryDetail": "버스정류소", "addressDong": "제주특별자치도 제주시 애월읍 고내리", "addressDetail": "제주시 애월읍 고내리 830 ", "latitude": "33.462647", "longitude": "126.334592"},{"baseDate": "20200525", "macAddress": "084f1d3216e029d47d81f28c2bc85071c32d3a7632af5169e708c43e7056ae94", "apGroupName": "4코스", "installLocationDetail": "기지국 - 남원올레5코스 안내탐방센터 방향", "category": "올레코스", "categoryDetail": "올레코스", "addressDong": "제주특별자치도 서귀포시 남원읍 남원리", "addressDetail": "서귀포시 남원읍 남원리 74-5", "latitude": "33.278904", "longitude": "126.723429"},{"baseDate": "20200525", "macAddress": "4ca823a7f3282ca02640e052469b8a59b6f5e2ca6304f198d91003ab4859a4fa", "apGroupName": "18코스", "installLocationDetail": "CCTV Pole 포구양방향 서북", "category": "올레코스", "categoryDetail": "올레코스", "addressDong": "제주특별자치도 제주시 조천읍 신촌리", "addressDetail": "제주시 조천읍 신촌리 2202-1(신촌북3길 1 )", "latitude": "33.537929", "longitude": "126.618628"},{"baseDate": "20200525", "macAddress": "33d7222c93fdb8ad5afaa5741d40175fc065e2642b48ad146b1d5924b5a4e1ed", "apGroupName": "1-47호어린이공원", "installLocationDetail": "CCTV pole", "category": "공원", "categoryDetail": "공원", "addressDong": "제주특별자치도 제주시 노형동", "addressDetail": "제주시 노형동 1031-1", "latitude": "33.492229", "longitude": "126.475226"},{"baseDate": "20200525", "macAddress": "cb712d5f79d699471799c6c2c00ca6bf1f71f127d1333983fd453d57972f2ff3", "apGroupName": "문화예술마을 저지리 농어촌체험마을", "installLocationDetail": "정보센터", "category": "관광지", "categoryDetail": "공영관광지", "addressDong": "제주특별자치도 제주시 한경면 저지리", "addressDetail": "제주시 한경면 저지리 1863-1", "latitude": "33.332661", "longitude": "126.25583"},{"baseDate": "20200525", "macAddress": "2018c7f16694964082647b5337ff676201915933f5dd973fba3f6764165fed2f", "apGroupName": "제주환상자전거길", "installLocationDetail": "방범CCTV", "category": "테마거리", "categoryDetail": "테마거리", "addressDong": "제주특별자치도 서귀포시 법환동", "addressDetail": "서귀포시 법환동 163", "latitude": "33.235889", "longitude": "126.515067"},{"baseDate": "20200525", "macAddress": "dde1ccdea03903c7573a598fbc024885b7934c3531c218441e80c3ddb0ddce81", "apGroupName": "청초밭영농조합법인", "installLocationDetail": "매표소 ", "category": "관광지", "categoryDetail": "사설관광지", "addressDong": "제주특별자치도 서귀포시 표선면 성읍리", "addressDetail": "서귀포시 표선면 성읍이리로57번길 34", "latitude": "33.419659", "longitude": "126.781521"},{"baseDate": "20200525", "macAddress": "3723ed0a3ddb086bc632ab1ca8f4bc063ce6faef2f34c4ea8f05b117afef20a9", "apGroupName": "버스정류소_신성마을 (제성마을 방면) ", "installLocationDetail": "인근 가로등설치(맞은편 방향)", "category": "버스정류소", "categoryDetail": "버스정류소", "addressDong": "제주특별자치도 제주시 연동", "addressDetail": "제주시 연동 2307-2", "latitude": "33.493859", "longitude": "126.488395"},{"baseDate": "20200525", "macAddress": "9df9e1a078ab6018f2ce961a4c37141dc3445e7494f2b89bc91d963312b41baf", "apGroupName": "제주유리박물관", "installLocationDetail": "매표소", "category": "관광지", "categoryDetail": "사설관광지", "addressDong": "제주특별자치도 서귀포시 상예동", "addressDetail": "서귀포시 상예동 4303 ", "latitude": "33.278556", "longitude": "126.37011"},{"baseDate": "20200525", "macAddress": "48f8f7688674249a7ecc33b05c3cb36994bffd889272237a37552f961d42f0cc", "apGroupName": "제주서문시장", "installLocationDetail": "서문공설시장 아케이드상가 남쪽 입구 천정(아케이드상가) ", "category": "전통시장", "categoryDetail": "전통시장", "addressDong": "제주특별자치도 제주시 용담일동", "addressDetail": "제주시 서문로4길 13-2 ", "latitude": "33.511532", "longitude": "126.51807"},{"baseDate": "20200525", "macAddress": "693e0d426c022f83973f01783509685e2702842ddfa21abb60ca865a3e603640", "apGroupName": "탑동 테마거리", "installLocationDetail": "탑동사거리 관광안내소  남동", "category": "테마거리", "categoryDetail": "테마거리", "addressDong": "제주특별자치도 제주시 삼도이동", "addressDetail": "제주시 중앙로 20 ", "latitude": "33.517902", "longitude": "126.524921"},{"baseDate": "20200525", "macAddress": "95a477b429524ff21cc1af09e3a1ba6686e81ef6f39082b9606d6d45ec7f5083", "apGroupName": "한라생태숲", "installLocationDetail": " 안내소 벽면 북", "category": "숲길", "categoryDetail": "숲길", "addressDong": "제주특별자치도 제주시 용강동", "addressDetail": "제주시 516로 2596(용강동)", "latitude": "33.430931", "longitude": "126.596935"},{"baseDate": "20200525", "macAddress": "d3f517e32640e50a47459ebc395d0a315dfd25c3632b1389879d0d992ff7c60c", "apGroupName": "버스정류소_대천환승정류장(종점)", "installLocationDetail": "대천동버스정류장", "category": "버스정류소", "categoryDetail": "버스정류소", "addressDong": "제주특별자치도 제주시 구좌읍 송당리", "addressDetail": "제주시 구좌읍 대천길 2-2 앞(송당리 산 126-3) ", "latitude": "33.436243", "longitude": "126.736818"},{"baseDate": "20200525", "macAddress": "b00f1a2467e79e5c868cc9f6217985bc406244c06653383b55be4f431b542775", "apGroupName": "로케디오월드", "installLocationDetail": "매표소", "category": "관광지", "categoryDetail": "사설관광지", "addressDong": "제주특별자치도 제주시 애월읍 봉성리", "addressDetail": "제주시 애월읍 화전길 3 ", "latitude": "33.352171", "longitude": "126.360491"},{"baseDate": "20200525", "macAddress": "23c80fd5f31a6152ac607922fc296978048dcde65bac3834723072d31b44a995", "apGroupName": "18코스", "installLocationDetail": "삼양해수욕장 동쪽 공중화장실 북동", "category": "올레코스", "categoryDetail": "올레코스", "addressDong": "제주특별자치도 제주시 삼양일동", "addressDetail": "제주시 서흘1길 32 ", "latitude": "33.529512", "longitude": "126.589086"},{"baseDate": "20200525", "macAddress": "c0433d882b4c916579c2bfe61710860bd195eb07881fd2192b0f7ec79bf04517", "apGroupName": "세화 해변", "installLocationDetail": "남자화장실 북", "category": "해변", "categoryDetail": "해변", "addressDong": "제주특별자치도 제주시 구좌읍 세화리", "addressDetail": "제주시 구좌읍 해맞이해안로 1391 x", "latitude": "33.528317", "longitude": "126.857243"},{"baseDate": "20200525", "macAddress": "a72b1f6b2d45418bf5dc8c089dd7508ad06d1b68b88261317d3eb032971b8f0d", "apGroupName": "서귀포매일올레시장", "installLocationDetail": "사거리판넬벽-서쪽방향-30도", "category": "전통시장", "categoryDetail": "전통시장", "addressDong": "제주특별자치도 서귀포시 서귀동", "addressDetail": "서귀포시 서귀동 271-30", "latitude": "33.249208", "longitude": "126.563331"},{"baseDate": "20200525", "macAddress": "e283c08bfc633c84a717109719fff3d8d07d506749ce8216078a283df4672de1", "apGroupName": "한림공원", "installLocationDetail": "쌍용각 벽면(매표소,주차장)", "category": "관광지", "categoryDetail": "사설관광지", "addressDong": "제주특별자치도 제주시 한림읍 협재리", "addressDetail": "제주시 한림읍 한림로 300", "latitude": "33.390216", "longitude": "126.238009"},{"baseDate": "20200525", "macAddress": "1c9562c6eb4d39421ef8fa1ff63f828913e35df6604d87dc29fe1fccb619466d", "apGroupName": "전기차충전소_관음사 휴게소", "installLocationDetail": "지붕 모서리", "category": "전기차충전소", "categoryDetail": "전기차충전소", "addressDong": "제주특별자치도 제주시 오등동", "addressDetail": "제주시 오등동 산180-3", "latitude": "33.42239", "longitude": "126.550697"},{"baseDate": "20200525", "macAddress": "4f704d667ed41bf5f82904456f7cfa8b84550d1c19b70fd31e3b25ef547d701e", "apGroupName": "버스정류소_산천단 한국폴리텍대학", "installLocationDetail": "길건너 정류장 방향 지향 1개", "category": "버스정류소", "categoryDetail": "버스정류소", "addressDong": "제주특별자치도 제주시 아라일동", "addressDetail": "제주시 아라동  371-5 ", "latitude": "33.44799", "longitude": "126.55547"},{"baseDate": "20200525", "macAddress": "a5585272bdd4ea4cd4402eb85db463edac1daca84b369c52862f349c4d89730e", "apGroupName": "제주국제공항", "installLocationDetail": "공항 1층 GATE 2 상단 기둥 동", "category": "공항/터미널/대합실", "categoryDetail": "공항", "addressDong": "제주특별자치도 제주시 용담이동", "addressDetail": "제주시 용담2동 2002", "latitude": "33.506764", "longitude": "126.494408"},{"baseDate": "20200525", "macAddress": "36408625e09e9666fc688d225db556a1ceb4877384230861eba05605e713d9ae", "apGroupName": "버스정류소_신촌초등학교(종점) ", "installLocationDetail": "버스정류장 지붕위", "category": "버스정류소", "categoryDetail": "버스정류소", "addressDong": "제주특별자치도 제주시 조천읍 신촌리", "addressDetail": "제주시 조천읍 신촌리 1823-3", "latitude": "33.532827", "longitude": "126.618834"},{"baseDate": "20200525", "macAddress": "cbdac47a4ea2fe51cec20a6d1d58b9ca02efc90187a08a0a567bb7722f3c1d94", "apGroupName": "전기차충전소_코코몽", "installLocationDetail": "매표소 외벽 - 서", "category": "전기차충전소", "categoryDetail": "전기차충전소", "addressDong": "제주특별자치도 서귀포시 남원읍 남원리", "addressDetail": "서귀포시 남원읍 남원리 2381 ", "latitude": "33.274906", "longitude": "126.704485"},{"baseDate": "20200525", "macAddress": "1f70d0e30a4cd2ab05a0c2d89c3154255418658a08f338039d66b36cdc1c76fc", "apGroupName": "누웨모루거리(구 바오젠거리)", "installLocationDetail": "관광안내소 지붕(바오젠거리 공영주차빌딩 주변)", "category": "테마거리", "categoryDetail": "테마거리", "addressDong": "제주특별자치도 제주시 연동", "addressDetail": "제주시 연동 272-56", "latitude": "33.488432", "longitude": "126.490752"},{"baseDate": "20200525", "macAddress": "115a327be884fddc21c9b5fa42e436f7805bcf29e6411a992b65eb395e2aaa08", "apGroupName": "지하상가", "installLocationDetail": "지하상가 중앙 동쪽(지하상가 )", "category": "전통시장", "categoryDetail": "지하상가", "addressDong": "제주특별자치도 제주시 일도일동", "addressDetail": "제주시 일도1동 1425-3", "latitude": "33.513132", "longitude": "126.525093"},{"baseDate": "20200525", "macAddress": "90fde425bd43978f9ed03fe446c21e30d13a65ca1f9dae9cff571dfe28d58076", "apGroupName": "아프리카박물관", "installLocationDetail": "매표소", "category": "관광지", "categoryDetail": "사설관광지", "addressDong": "제주특별자치도 서귀포시 대포동", "addressDetail": "서귀포시 대포동 1833", "latitude": "33.239869", "longitude": "126.429277"},{"baseDate": "20200525", "macAddress": "bba25904e29c974b403ae1f55c9c6ffbb3e24c454fe4f4d4fe11239ae9d2920e", "apGroupName": "칠성로 쇼핑거리", "installLocationDetail": "주정차무인단속", "category": "테마거리", "categoryDetail": "테마거리", "addressDong": "제주특별자치도 제주시 일도일동", "addressDetail": "제주시 관덕로 13길 14 ", "latitude": "33.514451", "longitude": "126.5262"},{"baseDate": "20200525", "macAddress": "43ed55ff00f83d1903ae153362acdcdf85ac042f4433745d0a09f188ab0f5c1d", "apGroupName": "문화예술의 거리 ", "installLocationDetail": " 어린이 CCTV 서", "category": "테마거리", "categoryDetail": "테마거리", "addressDong": "제주특별자치도 제주시 삼도이동", "addressDetail": "제주시 관덕로6길 11", "latitude": "33.512349", "longitude": "126.52211"},{"baseDate": "20200525", "macAddress": "c157bffe3cc379be85391fa360cca819a61724603293fdd985b6f520fa8c06ef", "apGroupName": "한라산국립공원", "installLocationDetail": "화장실(주차장) 지붕 동", "category": "관광지", "categoryDetail": "공영관광지", "addressDong": "제주특별자치도 제주시 해안동", "addressDetail": "제주시 1100로 2070-61(해안동 산 220-13) ", "latitude": "33.391635", "longitude": "126.495019"},{"baseDate": "20200525", "macAddress": "949a573dc2ac1090c30918dd159b4bcba6672d894a5e33d53bec0f6e674efb7d", "apGroupName": "솔동산 문화의 거리", "installLocationDetail": "단속CCTV 폴대 2", "category": "테마거리", "categoryDetail": "테마거리", "addressDong": "제주특별자치도 서귀포시 서귀동", "addressDetail": "서귀포시 서귀동 573-11 ", "latitude": "33.245155", "longitude": "126.564338"},{"baseDate": "20200525", "macAddress": "f0046ffe8dce965e035ea82eb65d91992e054e2b8dbd2052ee49a7d15c891d15", "apGroupName": "서귀포시외버스터미널", "installLocationDetail": "매표소", "category": "공항/터미널/대합실", "categoryDetail": "시외버스터미널", "addressDong": "제주특별자치도 서귀포시 법환동", "addressDetail": "서귀포시 법환동 843 ", "latitude": "33.248987", "longitude": "126.508232"},{"baseDate": "20200525", "macAddress": "b9be3829837941372c692e37e4b9f26c5eefa39a7cc448540aa82dd8e949c5eb", "apGroupName": "제주민속촌", "installLocationDetail": "매표소", "category": "관광지", "categoryDetail": "사설관광지", "addressDong": "제주특별자치도 서귀포시 표선면 표선리", "addressDetail": "서귀포시 표선면 표선리 40-1", "latitude": "33.324363", "longitude": "126.842425"},{"baseDate": "20200525", "macAddress": "7beac7f0dee2861b54592fe6f20a59424b745673a1c21aca87b5dbb3b4269b1d", "apGroupName": "소인국테마파크", "installLocationDetail": "매표소", "category": "관광지", "categoryDetail": "사설관광지", "addressDong": "제주특별자치도 서귀포시 안덕면 서광리", "addressDetail": "서귀포시 안덕면 서광리 725", "latitude": "33.290182", "longitude": "126.322697"},{"baseDate": "20200525", "macAddress": "5b8655284093e754d2fb59b4d572ebbdba9659ece2025c35426dc7bd904bb604", "apGroupName": "돈내코", "installLocationDetail": "원앙폭포 안전CCTV폴대", "category": "관광지", "categoryDetail": "공영관광지", "addressDong": "제주특별자치도 서귀포시 상효동", "addressDetail": "서귀포시 상효동 1463", "latitude": "33.30043", "longitude": "126.5816"},{"baseDate": "20200525", "macAddress": "85ae883e16b77d788fe5fe28d396e35de3682394d8fce92e7338be0c91aead0f", "apGroupName": "옹포천_어울공원", "installLocationDetail": "여자 화장실 외벽 - 서", "category": "공원", "categoryDetail": "공원", "addressDong": "제주특별자치도 제주시 한림읍 옹포리", "addressDetail": "제주시 한림읍 옹포리17", "latitude": "33.40451", "longitude": "126.258815"},{"baseDate": "20200525", "macAddress": "8fac86e11bd92b272acbe3815e3c646981ed73c92ed80786378e34895ec23a86", "apGroupName": "전기차충전소_서귀포시 일터나눔 자활센터", "installLocationDetail": "충전소  가림막 상단", "category": "전기차충전소", "categoryDetail": "전기차충전소", "addressDong": "제주특별자치도 서귀포시 호근동", "addressDetail": "서귀포시 속골로 22(호근동 1579-1)", "latitude": "33.241636", "longitude": "126.529092"},{"baseDate": "20200525", "macAddress": "69f9139455a9693d53432db07a6e15c941556bf43bb2ee6020567089da1b1972", "apGroupName": "버스정류소_제주절물자연휴양림", "installLocationDetail": "정류장", "category": "버스정류소", "categoryDetail": "버스정류소", "addressDong": "제주특별자치도 제주시 봉개동", "addressDetail": "제주시 봉개동 산 65-1", "latitude": "33.440685", "longitude": "126.63029"},{"baseDate": "20200525", "macAddress": "8734d96c2ff4d9a617cd189d1605e393e0ba0068e08566fedfc44b7a2df364ed", "apGroupName": "형제해안도로 ", "installLocationDetail": "3사 중계기 상부", "category": "해변", "categoryDetail": "해변", "addressDong": "제주특별자치도 서귀포시 대정읍 상모리", "addressDetail": "서귀포시 대정읍 상모리 4165-125 ", "latitude": "33.205119", "longitude": "126.28848"},{"baseDate": "20200525", "macAddress": "63f2636ef6b2434e95d1d9ceaab02055400d7c6fd14fa2b3e43d2ed24d2beb4b", "apGroupName": "신천리 벽화마을", "installLocationDetail": "CCTV POLE - 동", "category": "테마거리", "categoryDetail": "테마거리", "addressDong": "제주특별자치도 서귀포시 성산읍 신천리", "addressDetail": "서귀포시 성산읍 신천리 393 ", "latitude": "33.341107", "longitude": "126.852485"},{"baseDate": "20200525", "macAddress": "3723ed0a3ddb086bc632ab1ca8f4bc063ce6faef2f34c4ea8f05b117afef20a9", "apGroupName": "버스정류소_신성마을 (제성마을 방면) ", "installLocationDetail": "인근 가로등설치(맞은편 방향)", "category": "버스정류소", "categoryDetail": "버스정류소", "addressDong": "제주특별자치도 제주시 연동", "addressDetail": "제주시 연동 2307-2", "latitude": "33.493859", "longitude": "126.488395"},{"baseDate": "20200525", "macAddress": "72af0b01e8d28303bedb987623b942007bf4c915447211fc05f573494180496c", "apGroupName": "큰엉(남원관광지구)", "installLocationDetail": "화장실외벽 동", "category": "관광지", "categoryDetail": "공영관광지", "addressDong": "제주특별자치도 서귀포시 남원읍", "addressDetail": "서귀포시 남원읍 태위로 522-17", "latitude": "33.273289", "longitude": "126.704351"},{"baseDate": "20200525", "macAddress": "e5ffd96e86bd3b7a3db9a484fa4bd3f6cf3fc9c820b0409d640de6c09e423ed6", "apGroupName": "혼인지", "installLocationDetail": "KT 전주 1-2", "category": "관광지", "categoryDetail": "공영관광지", "addressDong": "제주특별자치도 서귀포시 성산읍 온평리", "addressDetail": "서귀포시 성산읍 온평리 1702-1", "latitude": "33.414865", "longitude": "126.894413"},{"baseDate": "20200525", "macAddress": "b1ad3fc18ec87ff8034e0dec3f2e8b7be406e5dafab4166511040e7fa8703877", "apGroupName": "버스정류소_동광환승정류장(제주방면)", "installLocationDetail": "버스정류장 상부", "category": "버스정류소", "categoryDetail": "버스정류소", "addressDong": "제주특별자치도 서귀포시 안덕면 동광리", "addressDetail": "서귀포시 안덕면 동광리 824-1  ", "latitude": "33.310422", "longitude": "126.341042"},{"baseDate": "20200525", "macAddress": "48f8f7688674249a7ecc33b05c3cb36994bffd889272237a37552f961d42f0cc", "apGroupName": "제주서문시장", "installLocationDetail": "서문공설시장 아케이드상가 남쪽 입구 천정(아케이드상가) ", "category": "전통시장", "categoryDetail": "전통시장", "addressDong": "제주특별자치도 제주시 용담일동", "addressDetail": "제주시 서문로4길 13-2 ", "latitude": "33.511532", "longitude": "126.51807"},{"baseDate": "20200525", "macAddress": "693e0d426c022f83973f01783509685e2702842ddfa21abb60ca865a3e603640", "apGroupName": "탑동 테마거리", "installLocationDetail": "탑동사거리 관광안내소  남동", "category": "테마거리", "categoryDetail": "테마거리", "addressDong": "제주특별자치도 제주시 삼도이동", "addressDetail": "제주시 중앙로 20 ", "latitude": "33.517902", "longitude": "126.524921"},{"baseDate": "20200525", "macAddress": "27490b1e393a5fe82c83d70e2f04275244a3461dcc94e9f06f619a0031beb7fd", "apGroupName": "베니스랜드", "installLocationDetail": "식당", "category": "관광지", "categoryDetail": "사설관광지", "addressDong": "제주특별자치도 서귀포시 성산읍 난산리", "addressDetail": "서귀포시 성산읍 난산리 2575", "latitude": "33.415297", "longitude": "126.840807"},{"baseDate": "20200525", "macAddress": "8064ee16483cb67546919b7c94eeaf0b519b7a1f520db8c891984d347eee4f8a", "apGroupName": "전기차충전소_표선생활체육관", "installLocationDetail": "건물외벽-동", "category": "전기차충전소", "categoryDetail": "전기차충전소", "addressDong": "제주특별자치도 서귀포시 표선면 하천리", "addressDetail": "서귀포시 표선면 하천리 1832-1", "latitude": "33.354154", "longitude": "126.81513"},{"baseDate": "20200525", "macAddress": "9f9c480c92efa07f75ab43c4382006ac38c39959c3bdba73b0c90619f715f642", "apGroupName": "제주국제공항", "installLocationDetail": "공항 1층 GATE 5 상단 기둥 남", "category": "공항/터미널/대합실", "categoryDetail": "공항", "addressDong": "제주특별자치도 제주시 용담이동", "addressDetail": "제주시 용담2동 2002", "latitude": "33.50615", "longitude": "126.492643"},{"baseDate": "20200525", "macAddress": "0bd6040ae6e80eca262cbc5114c152ba6932f6ad8f0ece6b69c1cae6ee49ef7d", "apGroupName": "엉알해안", "installLocationDetail": "외벽", "category": "해변", "categoryDetail": "해변", "addressDong": "제주특별자치도 제주시 한경면 고산리", "addressDetail": "제주시 한경면 고산리 3674-9", "latitude": "33.299334", "longitude": "126.167758"},{"baseDate": "20200525", "macAddress": "18c297917620bd124b10406370818a0baba5bff05288515c09528f0956ea935b", "apGroupName": "칠십리 음식 특화거리", "installLocationDetail": "클린 하우스 IP주 상부", "category": "테마거리", "categoryDetail": "테마거리", "addressDong": "제주특별자치도 서귀포시 서귀동", "addressDetail": "서귀포시 서귀동 673-3", "latitude": "33.239395", "longitude": "126.564123"},{"baseDate": "20200525", "macAddress": "543f19cdc131484ac49237736c24da7a16628cd9b3cb7f2726b22b403455d576", "apGroupName": "서귀포궁도장", "installLocationDetail": "외벽 - 주차장", "category": "체육시설", "categoryDetail": "체육시설", "addressDong": "제주특별자치도 서귀포시 강정동", "addressDetail": "서귀포시 강정동 1475", "latitude": "33.259694", "longitude": "126.497775"},{"baseDate": "20200525", "macAddress": "53f324e444c68f6baa409f16d5b7719a44e11af3b8b8f22ea152613f4e1d0a45", "apGroupName": "서귀포국민체육센터 ", "installLocationDetail": "2층 홀", "category": "체육시설", "categoryDetail": "체육시설", "addressDong": "제주특별자치도 서귀포시 중문동", "addressDetail": "서귀포시 중문동 1921-1", "latitude": "33.25097", "longitude": "126.432052"},{"baseDate": "20200525", "macAddress": "b2b38a92a88ce087712d51ef039b61ffca0b8d6be0e6e1060c2ebd4c22615d3a", "apGroupName": "힐링카약파크비체올린 ", "installLocationDetail": "매점 외벽", "category": "관광지", "categoryDetail": "사설관광지", "addressDong": "제주특별자치도 제주시 한경면 판포리", "addressDetail": "제주시 한경면 판포리 산 8", "latitude": "33.349562", "longitude": "126.219146"},{"baseDate": "20200525", "macAddress": "6768596ae97e987c2eca0d284b92a6f87415bd8e18131e8c58a8966f334904b3", "apGroupName": "1코스", "installLocationDetail": "중계기 - 올레길 정자방향 일대", "category": "올레코스", "categoryDetail": "올레코스", "addressDong": "제주특별자치도 제주시 구좌읍 종달리", "addressDetail": "제주시 구좌읍 종달리 3275 앞", "latitude": "33.488116", "longitude": "126.881736"},{"baseDate": "20200525", "macAddress": "a223b2bfced0b77eb1d863dc6222ac6d53c95d162f17bc2b1bc621e53efaf7ac", "apGroupName": "4코스", "installLocationDetail": "IP주 - 남쪽 세화 포구방향", "category": "올레코스", "categoryDetail": "올레코스", "addressDong": "제주특별자치도 서귀포시 표선면 세화리", "addressDetail": "서귀포시 표선면 세화리 190-3", "latitude": "33.303644", "longitude": "126.806336"},{"baseDate": "20200525", "macAddress": "cf3e1990dfbb5d3bebf231ce31fb0cce908d82d043e7d4c37e9d3c7baf18cac7", "apGroupName": "3-A코스", "installLocationDetail": "kt전주 - 온평방향 ", "category": "올레코스", "categoryDetail": "올레코스", "addressDong": "제주특별자치도 서귀포시 성산읍 삼달리", "addressDetail": "서귀포시 성산읍 삼달리 434-6", "latitude": "33.372139", "longitude": "126.855461"},{"baseDate": "20200525", "macAddress": "b988c06a1c834ebc7663e46f052b01fb2711eba1b0671ed38021cc72d211afbb", "apGroupName": "에코촌 유스호스텔", "installLocationDetail": "옥상 동", "category": "관광지", "categoryDetail": "공영관광지", "addressDong": "제주특별자치도 제주시 조천읍 선흘리", "addressDetail": "제주시 조천읍 선흘리 2610", "latitude": "33.51648", "longitude": "126.70435"},{"baseDate": "20200525", "macAddress": "b4466a8a79574564c700951d9261f0f35858d81ef0e8315ff0af01661c4d48ba", "apGroupName": "버스정류소_고성리 성산농협", "installLocationDetail": "버스정류장 상부", "category": "버스정류소", "categoryDetail": "버스정류소", "addressDong": "제주특별자치도 서귀포시 성산읍 고성리", "addressDetail": "서귀포시 성산읍 고성리 1106-12 앞", "latitude": "33.445896", "longitude": "126.912589"},{"baseDate": "20200525", "macAddress": "d14ee1daa35c6eb1bf4a3836621223aa960c649c6ecb7caf2eb98abef0645171", "apGroupName": "버스정류소_고성오일시장[동] ", "installLocationDetail": "버스정류장 상부", "category": "버스정류소", "categoryDetail": "버스정류소", "addressDong": "제주특별자치도 서귀포시 성산읍 고성리", "addressDetail": "서귀포시 성산읍 고성리 1204-1 앞", "latitude": "33.452291", "longitude": "126.914126"},{"baseDate": "20200525", "macAddress": "83dc393e25cbc6ee683b536df45837199df86264ad701832bd5a00631ae8471c", "apGroupName": "칠십리 음식 특화거리", "installLocationDetail": "클린 하우스 IP주 상부", "category": "테마거리", "categoryDetail": "테마거리", "addressDong": "제주특별자치도 서귀포시 서귀동", "addressDetail": "서귀포시 서귀동 673-3", "latitude": "33.239783", "longitude": "126.562984"},{"baseDate": "20200525", "macAddress": "5209f0638062a506253df25910d6bc1d2395af03f03b04d3dda19cd9fc3acc71", "apGroupName": "칠성로 쇼핑거리", "installLocationDetail": "아케이트 pole", "category": "테마거리", "categoryDetail": "테마거리", "addressDong": "제주특별자치도 제주시 일도일동", "addressDetail": "제주시 일도1동 1363-4(칠성로길 22-1)", "latitude": "33.514225", "longitude": "126.525141"},{"baseDate": "20200525", "macAddress": "133cf64632b952e9febce3689e1de33e63053b6fcc86a253546d0b7c6f83cae0", "apGroupName": " 10코스", "installLocationDetail": "방범CCTV 폴대 서쪽 제주보물섬방향", "category": "올레코스", "categoryDetail": "올레코스", "addressDong": "제주특별자치도 서귀포시 대정읍 하모리", "addressDetail": "서귀포시 대정읍 하모리 646-12 ", "latitude": "33.211232", "longitude": "126.256352"},{"baseDate": "20200525", "macAddress": "cb94e32949181285672a4fd5dcddaa5ff8a595ba3c0b382dd4c74a3cd3a16e28", "apGroupName": "새마을 소공원", "installLocationDetail": "중계기 폴대 남 - 새마을 소공원", "category": "공원", "categoryDetail": "공원", "addressDong": "제주특별자치도 서귀포시 대포동", "addressDetail": "서귀포시 대포동2238 옆", "latitude": "33.241491", "longitude": "126.443587"},{"baseDate": "20200525", "macAddress": "3f2a2b7593034ded42c8ad8618326aad68ecc5c37c3054467322ec707f9d5f38", "apGroupName": "오션파크", "installLocationDetail": " 매표소 내", "category": "관광지", "categoryDetail": "사설관광지", "addressDong": "제주특별자치도 서귀포시 성산읍 시흥리", "addressDetail": "서귀포시 성산읍 시흥리 12-97", "latitude": "33.478763", "longitude": "126.913513"},{"baseDate": "20200525", "macAddress": "6f3e01dc1239c762fa4087d131720106e8b305938e209fcb3a97b72b48737eea", "apGroupName": "서귀포야구장", "installLocationDetail": "외벽 야구장", "category": "체육시설", "categoryDetail": "체육시설", "addressDong": "제주특별자치도 서귀포시 강정동", "addressDetail": "서귀포시 강정동 1552-3", "latitude": "33.260439", "longitude": "126.503763"},{"baseDate": "20200525", "macAddress": "c4382442121acfa665b1966dd130e209d1f3efadc45a84a4786a03b15ecbf6db", "apGroupName": "버스정류소_휴애리 자연생활공원 (올리소방면)", "installLocationDetail": "입간판 폴대", "category": "버스정류소", "categoryDetail": "버스정류소", "addressDong": "제주특별자치도 서귀포시 남원읍 신례리", "addressDetail": "서귀포시 남원읍 신례리 2081", "latitude": "33.308221", "longitude": "126.632676"},{"baseDate": "20200525", "macAddress": "ebf7cd9fddf028d358cb4734c4069771a4251ca722a6e20e5fe8566000c2c903", "apGroupName": "제주 마방목지", "installLocationDetail": "CCTV POLE", "category": "관광지", "categoryDetail": "사설관광지", "addressDong": "제주특별자치도 제주시 용강동", "addressDetail": "제주시 용강동 산 14-34(516로 2480)", "latitude": "33.42722", "longitude": "126.60442"},{"baseDate": "20200525", "macAddress": "fca10011db7228ecdab6f0fe5459a3e98b5783052aca4840880f39a0453c5fec", "apGroupName": "버스정류소-주공 3 4단지[남]삼아아파트 방면", "installLocationDetail": "버스정류소 상부", "category": "버스정류소", "categoryDetail": "버스정류소", "addressDong": "제주특별자치도 서귀포시 동홍동", "addressDetail": "서귀포시 동홍동 180-6", "latitude": "33.250085", "longitude": "126.571862"},{"baseDate": "20200525", "macAddress": "3f4e989b5a45378b38e816d081c5aa631c04fb939a79bf1b83753dedab116773", "apGroupName": "표선 해비치 해변", "installLocationDetail": "상황실 외벽 동", "category": "해변", "categoryDetail": "해변", "addressDong": "제주특별자치도 서귀포시 표선면 표선리", "addressDetail": "서귀포시 표선면 표선리 44-13번지      ", "latitude": "33.325913", "longitude": "126.843017"},{"baseDate": "20200525", "macAddress": "dcf1c9b79c066cf7631972a83b71fb878e0fea679d3226db74326f65822de5bc", "apGroupName": "자연사랑갤러리", "installLocationDetail": "건물외벽", "category": "관광지", "categoryDetail": "사설관광지", "addressDong": "제주특별자치도 서귀포시 표선면 가시리", "addressDetail": "서귀포시 표선면 가시리 1924 ", "latitude": "33.35498", "longitude": "126.771896"},{"baseDate": "20200525", "macAddress": "4d08e776e1d9de695c9db43fe432f709cfb2d973816adb3346e6df532d191887", "apGroupName": "포니벨리", "installLocationDetail": "건물 옥상", "category": "관광지", "categoryDetail": "사설관광지", "addressDong": "제주특별자치도 서귀포시 표선면 성읍리", "addressDetail": "서귀포시 표선면 성읍리 2684", "latitude": "33.403137", "longitude": "126.779266"},{"baseDate": "20200525", "macAddress": "3f4e989b5a45378b38e816d081c5aa631c04fb939a79bf1b83753dedab116773", "apGroupName": "표선 해비치 해변", "installLocationDetail": "상황실 외벽 동", "category": "해변", "categoryDetail": "해변", "addressDong": "제주특별자치도 서귀포시 표선면 표선리", "addressDetail": "서귀포시 표선면 표선리 44-13번지      ", "latitude": "33.325913", "longitude": "126.843017"},{"baseDate": "20200525", "macAddress": "0aba945746ea11109f08d28f90bfd805b87549ad664c13ea42811935e56ab6f7", "apGroupName": "절물자연휴양림", "installLocationDetail": "목공예체험장 옥탑 남", "category": "관광지", "categoryDetail": "공영관광지", "addressDong": "제주특별자치도 제주시 봉개동", "addressDetail": "제주시 명림로 584(봉개동 산78-1) ", "latitude": "33.439582", "longitude": "126.624996"},{"baseDate": "20200525", "macAddress": "9dfa84b27db111340af80405d29ea1a41dfa97ad765b267b58d28aab53b165ab", "apGroupName": "16코스", "installLocationDetail": "다락쉼터 남자화장실 입구 외벽 북동", "category": "올레코스", "categoryDetail": "올레코스", "addressDong": "제주특별자치도 제주시 애월읍 고내리", "addressDetail": "제주시 애월읍 고내리 462 ", "latitude": "33.470477", "longitude": "126.340825"},{"baseDate": "20200525", "macAddress": "45950c08df99a2e880c32a5e79cd826ddda7f04e43cea8516bcfa660adda27fd", "apGroupName": "신재생에너지관", "installLocationDetail": "전시관 내부", "category": "관광지", "categoryDetail": "공영관광지", "addressDong": "제주특별자치도 제주시 구좌읍 행원리", "addressDetail": "제주시 구좌읍 해맞이해안로 712-3 ", "latitude": "33.55922", "longitude": "126.818137"},{"baseDate": "20200525", "macAddress": "95a477b429524ff21cc1af09e3a1ba6686e81ef6f39082b9606d6d45ec7f5083", "apGroupName": "한라생태숲", "installLocationDetail": " 안내소 벽면 북", "category": "숲길", "categoryDetail": "숲길", "addressDong": "제주특별자치도 제주시 용강동", "addressDetail": "제주시 516로 2596(용강동)", "latitude": "33.430931", "longitude": "126.596935"},{"baseDate": "20200525", "macAddress": "d3f517e32640e50a47459ebc395d0a315dfd25c3632b1389879d0d992ff7c60c", "apGroupName": "버스정류소_대천환승정류장(종점)", "installLocationDetail": "대천동버스정류장", "category": "버스정류소", "categoryDetail": "버스정류소", "addressDong": "제주특별자치도 제주시 구좌읍 송당리", "addressDetail": "제주시 구좌읍 대천길 2-2 앞(송당리 산 126-3) ", "latitude": "33.436243", "longitude": "126.736818"},{"baseDate": "20200525", "macAddress": "b00f1a2467e79e5c868cc9f6217985bc406244c06653383b55be4f431b542775", "apGroupName": "로케디오월드", "installLocationDetail": "매표소", "category": "관광지", "categoryDetail": "사설관광지", "addressDong": "제주특별자치도 제주시 애월읍 봉성리", "addressDetail": "제주시 애월읍 화전길 3 ", "latitude": "33.352171", "longitude": "126.360491"},{"baseDate": "20200525", "macAddress": "72f3498c845222058e90b3642e7260718e56cb86aa3b83e456b2c3c6df20fed8", "apGroupName": "전기차충전소_성산읍 공영주차장", "installLocationDetail": "전기인입 IP주", "category": "전기차충전소", "categoryDetail": "전기차충전소", "addressDong": "제주특별자치도 서귀포시 성산읍 고성리", "addressDetail": "서귀포시 성산읍 고성리 327-1", "latitude": "33.44865", "longitude": "126.916468"},{"baseDate": "20200525", "macAddress": "c9bcdcde091f2d75fb6c8c40f95f8c2a7127184120a370bcafbd661004a145cd", "apGroupName": "전기차충전소_매일올레시장", "installLocationDetail": "3층 함체 위 천정", "category": "전기차충전소", "categoryDetail": "전기차충전소", "addressDong": "제주특별자치도 서귀포시 서귀동", "addressDetail": "서귀포시 서귀동 277-2", "latitude": "33.250332", "longitude": "126.563333"},{"baseDate": "20200525", "macAddress": "9471b54aa0ee803615589ed048550af7f9014bd98160b3844833701f5bceacc1", "apGroupName": "전기차충전소_남원 동부보건소", "installLocationDetail": "건물 외벽 - 동", "category": "전기차충전소", "categoryDetail": "전기차충전소", "addressDong": "제주특별자치도 서귀포시 남원읍 남원리", "addressDetail": "서귀포시 남원읍 남원리 2359-1", "latitude": "33.275277", "longitude": "126.70357"},{"baseDate": "20200525", "macAddress": "5ffea550dd9f3c94d1d62bced729326e63b1a4b1170bf98e4f4347f439f7f615", "apGroupName": "제주돌문화공원", "installLocationDetail": "돌박물관 뮤지엄샾 옥상", "category": "관광지", "categoryDetail": "공영관광지", "addressDong": "제주특별자치도 제주시 조천읍 교래리", "addressDetail": "제주시 조천읍 남조로 2023", "latitude": "33.448859", "longitude": "126.658909"},{"baseDate": "20200525", "macAddress": "b4d2bbf4d569e5d1f88322d824375eff05e9da2343accba7724d64d3166449a8", "apGroupName": "성읍민속마을", "installLocationDetail": "가로등1-서", "category": "관광지", "categoryDetail": "공영관광지", "addressDong": "제주특별자치도 서귀포시 표선면 성읍리", "addressDetail": "서귀포시 표선면 성읍리 812-1", "latitude": "33.387448", "longitude": "126.800469"},{"baseDate": "20200525", "macAddress": "9c471df80113f8dfcc15a59f11bfc780300a31307c3bc25b3b54a5588a3c5aab", "apGroupName": "삼양검은모래해변", "installLocationDetail": "옥상 벽면(해변)", "category": "해변", "categoryDetail": "해변", "addressDong": "제주특별자치도 제주시 삼양일동", "addressDetail": "제주시 삼양1동 1960-4번지", "latitude": "33.525997", "longitude": "126.58624"},{"baseDate": "20200525", "macAddress": "af9bdf20969826caeaea9e1427f06951d681c2c0c54fd1597d1c42dfee558ede", "apGroupName": "에코랜드테마파크", "installLocationDetail": "메인역(매표소 주차장)", "category": "관광지", "categoryDetail": "사설관광지", "addressDong": "제주특별자치도 제주시 조천읍 대흘리", "addressDetail": "제주시 조천읍 번영로 1278-169", "latitude": "33.447055", "longitude": "126.667099"},{"baseDate": "20200525", "macAddress": "5a218a89bc8cbb5f05af14a01798f0ef2bf9aa432af2637ac6257772e357d447", "apGroupName": "비자림", "installLocationDetail": " 화장실 처마(주차장)", "category": "관광지", "categoryDetail": "공영관광지", "addressDong": "제주특별자치도 제주시 구좌읍", "addressDetail": "제주시 구좌읍 비자숲길 62", "latitude": "33.491305", "longitude": "126.811451"},{"baseDate": "20200525", "macAddress": "2a6cd7fff05a0bdb8b8aa27ccf51b4922a17c5f699fd2cf57d31699f3d83227c", "apGroupName": "서귀포자연휴양림", "installLocationDetail": "건물외벽 족구장방향", "category": "관광지", "categoryDetail": "공영관광지", "addressDong": "제주특별자치도 서귀포시 하원동", "addressDetail": "서귀포시 하원동 산1-1", "latitude": "33.312151", "longitude": "126.459594"},{"baseDate": "20200525", "macAddress": "c83df96d99ae3d70b6217ec856a076589723bc75dea3c67ee3596468de182f4f", "apGroupName": "김녕미로공원", "installLocationDetail": "매표소 주차장 방향", "category": "관광지", "categoryDetail": "사설관광지", "addressDong": "제주특별자치도 제주시 구좌읍 김녕리", "addressDetail": "제주시 구좌읍 만장굴길 122 ", "latitude": "33.53605", "longitude": "126.772165"},{"baseDate": "20200525", "macAddress": "8dbad464a93a8e1086e5ffc3872678cf05b7c9f59d3b111b76a3b68d0075cb61", "apGroupName": "제주미니랜드", "installLocationDetail": "매표소 서", "category": "관광지", "categoryDetail": "사설관광지", "addressDong": "제주특별자치도 제주시 조천읍 교래리", "addressDetail": "제주시 조천읍 비자림로 606 ", "latitude": "33.434082", "longitude": "126.675044"},{"baseDate": "20200525", "macAddress": "37430cf8727b5f014045eab2b3cfea907c988c82edeb8c2e8dfb00d072ce2a8d", "apGroupName": "버스정류소_성산포수협표선지점[서] ", "installLocationDetail": "버스정류장 상부", "category": "버스정류소", "categoryDetail": "버스정류소", "addressDong": "제주특별자치도 서귀포시 표선면 표선리", "addressDetail": "서귀포시 표선면 표선리 664 (표선관정로 105-2)", "latitude": "33.324022", "longitude": "126.831681"},{"baseDate": "20200525", "macAddress": "497ea84addf6536ef722d35d8a480bb23dbb1f8969d400109b77f8928f1f9e91", "apGroupName": "칠십리공원", "installLocationDetail": "CCTV폴에 설치-남", "category": "공원", "categoryDetail": "공원", "addressDong": "제주특별자치도 서귀포시 서홍동", "addressDetail": "서귀포시 서홍동 2579", "latitude": "33.245484", "longitude": "126.55406"},{"baseDate": "20200525", "macAddress": "4c6b93ed5889468d2e65c395639fd257186a2a3c64506509c19628c114e079ba", "apGroupName": "우도봉", "installLocationDetail": "우도아이스크림 건물 외벽 -동", "category": "관광지", "categoryDetail": "공영관광지", "addressDong": "제주특별자치도 제주시 우도면 연평리", "addressDetail": "제주시 우도면 연평리 343-2", "latitude": "33.49322", "longitude": "126.960153"},{"baseDate": "20200525", "macAddress": "a6d46a539ba4f3bcb732e1145c8f238fe29600d99d1c35a74eb2a4f345b0e856", "apGroupName": "누웨모루거리(구 바오젠거리)", "installLocationDetail": "삼거리 범죄예방 CCTV 폴", "category": "테마거리", "categoryDetail": "테마거리", "addressDong": "제주특별자치도 제주시 연동", "addressDetail": "제주시 연동 272-22(은남1길 46)", "latitude": "33.48956", "longitude": "126.49079"},{"baseDate": "20200525", "macAddress": "887ae1b39f2a8c03354373c924ba3603563b7b36f0557725cbcb51ae0af704fe", "apGroupName": "연동공원", "installLocationDetail": "경로당 남쪽 가로등", "category": "공원", "categoryDetail": "공원", "addressDong": "제주특별자치도 제주시 연동", "addressDetail": "제주시 연동 1369", "latitude": "33.48239", "longitude": "126.487547"},{"baseDate": "20200525", "macAddress": "01849bfbfd2f969bf6d4c3b49f3ed423365695725c5d574c2f479b369c379596", "apGroupName": "버스정류소_서회천[서]", "installLocationDetail": "정류장천정", "category": "버스정류소", "categoryDetail": "버스정류소", "addressDong": "제주특별자치도 제주시 회천동", "addressDetail": "제주시 회천동 2876-5(회천동 2924 앞)", "latitude": "33.498382", "longitude": "126.606635"},{"baseDate": "20200525", "macAddress": "9385da4712312fbbbf8a5136e281a2b9b9eed5c77180e600c5ee39fa180c050f", "apGroupName": "18코스", "installLocationDetail": "CCTV Pole 남쪽화장실방향", "category": "올레코스", "categoryDetail": "올레코스", "addressDong": "제주특별자치도 제주시 화북일동", "addressDetail": "제주시 화북일동 4269-9 (금산5길 30-5 앞)", "latitude": "33.525282", "longitude": "126.564683"},{"baseDate": "20200525", "macAddress": "b6bfdb10c5d1bea0b6d104d2505b5ab12d1e370e456608a4ce808def81487741", "apGroupName": "버스정류소_애월고등학교[북]", "installLocationDetail": "버스정류장 상부", "category": "버스정류소", "categoryDetail": "버스정류소", "addressDong": "제주특별자치도 제주시 애월읍 고내리", "addressDetail": "제주시 애월읍 고내리 830 ", "latitude": "33.462647", "longitude": "126.334592"},{"baseDate": "20200525", "macAddress": "084f1d3216e029d47d81f28c2bc85071c32d3a7632af5169e708c43e7056ae94", "apGroupName": "4코스", "installLocationDetail": "기지국 - 남원올레5코스 안내탐방센터 방향", "category": "올레코스", "categoryDetail": "올레코스", "addressDong": "제주특별자치도 서귀포시 남원읍 남원리", "addressDetail": "서귀포시 남원읍 남원리 74-5", "latitude": "33.278904", "longitude": "126.723429"},{"baseDate": "20200525", "macAddress": "df68676f207b1f9c507be011ff52eef9d1d4d8b8c2c1a72bfc4af8452c164d6d", "apGroupName": "천지연폭포", "installLocationDetail": "폭포쪽 CCTV -북", "category": "관광지", "categoryDetail": "공영관광지", "addressDong": "제주특별자치도 서귀포시 서귀동", "addressDetail": "서귀포시 서귀동 809 ", "latitude": "33.246624", "longitude": "126.555008"},{"baseDate": "20200525", "macAddress": "33d7222c93fdb8ad5afaa5741d40175fc065e2642b48ad146b1d5924b5a4e1ed", "apGroupName": "1-47호어린이공원", "installLocationDetail": "CCTV pole", "category": "공원", "categoryDetail": "공원", "addressDong": "제주특별자치도 제주시 노형동", "addressDetail": "제주시 노형동 1031-1", "latitude": "33.492229", "longitude": "126.475226"},{"baseDate": "20200525", "macAddress": "cb712d5f79d699471799c6c2c00ca6bf1f71f127d1333983fd453d57972f2ff3", "apGroupName": "문화예술마을 저지리 농어촌체험마을", "installLocationDetail": "정보센터", "category": "관광지", "categoryDetail": "공영관광지", "addressDong": "제주특별자치도 제주시 한경면 저지리", "addressDetail": "제주시 한경면 저지리 1863-1", "latitude": "33.332661", "longitude": "126.25583"},{"baseDate": "20200525", "macAddress": "2018c7f16694964082647b5337ff676201915933f5dd973fba3f6764165fed2f", "apGroupName": "제주환상자전거길", "installLocationDetail": "방범CCTV", "category": "테마거리", "categoryDetail": "테마거리", "addressDong": "제주특별자치도 서귀포시 법환동", "addressDetail": "서귀포시 법환동 163", "latitude": "33.235889", "longitude": "126.515067"},{"baseDate": "20200525", "macAddress": "dde1ccdea03903c7573a598fbc024885b7934c3531c218441e80c3ddb0ddce81", "apGroupName": "청초밭영농조합법인", "installLocationDetail": "매표소 ", "category": "관광지", "categoryDetail": "사설관광지", "addressDong": "제주특별자치도 서귀포시 표선면 성읍리", "addressDetail": "서귀포시 표선면 성읍이리로57번길 34", "latitude": "33.419659", "longitude": "126.781521"},{"baseDate": "20200525", "macAddress": "3723ed0a3ddb086bc632ab1ca8f4bc063ce6faef2f34c4ea8f05b117afef20a9", "apGroupName": "버스정류소_신성마을 (제성마을 방면) ", "installLocationDetail": "인근 가로등설치(맞은편 방향)", "category": "버스정류소", "categoryDetail": "버스정류소", "addressDong": "제주특별자치도 제주시 연동", "addressDetail": "제주시 연동 2307-2", "latitude": "33.493859", "longitude": "126.488395"},{"baseDate": "20200525", "macAddress": "72af0b01e8d28303bedb987623b942007bf4c915447211fc05f573494180496c", "apGroupName": "큰엉(남원관광지구)", "installLocationDetail": "화장실외벽 동", "category": "관광지", "categoryDetail": "공영관광지", "addressDong": "제주특별자치도 서귀포시 남원읍", "addressDetail": "서귀포시 남원읍 태위로 522-17", "latitude": "33.273289", "longitude": "126.704351"},{"baseDate": "20200525", "macAddress": "e5ffd96e86bd3b7a3db9a484fa4bd3f6cf3fc9c820b0409d640de6c09e423ed6", "apGroupName": "혼인지", "installLocationDetail": "KT 전주 1-2", "category": "관광지", "categoryDetail": "공영관광지", "addressDong": "제주특별자치도 서귀포시 성산읍 온평리", "addressDetail": "서귀포시 성산읍 온평리 1702-1", "latitude": "33.414865", "longitude": "126.894413"},{"baseDate": "20200525", "macAddress": "b1ad3fc18ec87ff8034e0dec3f2e8b7be406e5dafab4166511040e7fa8703877", "apGroupName": "버스정류소_동광환승정류장(제주방면)", "installLocationDetail": "버스정류장 상부", "category": "버스정류소", "categoryDetail": "버스정류소", "addressDong": "제주특별자치도 서귀포시 안덕면 동광리", "addressDetail": "서귀포시 안덕면 동광리 824-1  ", "latitude": "33.310422", "longitude": "126.341042"},{"baseDate": "20200525", "macAddress": "48f8f7688674249a7ecc33b05c3cb36994bffd889272237a37552f961d42f0cc", "apGroupName": "제주서문시장", "installLocationDetail": "서문공설시장 아케이드상가 남쪽 입구 천정(아케이드상가) ", "category": "전통시장", "categoryDetail": "전통시장", "addressDong": "제주특별자치도 제주시 용담일동", "addressDetail": "제주시 서문로4길 13-2 ", "latitude": "33.511532", "longitude": "126.51807"},{"baseDate": "20200525", "macAddress": "76a770c3b3e38506ae9f2eca19875f156bbe4f1844ceb065556381bfe7eb16f6", "apGroupName": "18코스", "installLocationDetail": "CCTV Pole 북쪽정자방향(남당모루쉼팡)", "category": "올레코스", "categoryDetail": "올레코스", "addressDong": "제주특별자치도 제주시 화북일동", "addressDetail": "제주시 화북일동 4269-9 (금산5길 30-5 앞)", "latitude": "33.526485", "longitude": "126.56409"},{"baseDate": "20200525", "macAddress": "c9fab7d63138c59c94c054e5e206dd319fb5a5b04b68d1bae807e1a18340928d", "apGroupName": "7코스", "installLocationDetail": "중계기 - 서쪽 코스모스 거리 방향", "category": "올레코스", "categoryDetail": "올레코스", "addressDong": "제주특별자치도 서귀포시 법환동", "addressDetail": "서귀포시 법환동 1450", "latitude": "33.232761", "longitude": "126.511264"},{"baseDate": "20200525", "macAddress": "a2fdb8319f700a83180b624a83e52d6259ed1b5b616fb4f7da7f319314a5268d", "apGroupName": "6코스", "installLocationDetail": "KT전주 - 서쪽 올레길", "category": "올레코스", "categoryDetail": "올레코스", "addressDong": "제주특별자치도 서귀포시 서귀동", "addressDetail": "서귀포시 서귀동 93-19", "latitude": "33.244793", "longitude": "126.569389"},{"baseDate": "20200525", "macAddress": "940c61fb8a142d5ff75def19789dcb1219d307e7c627e0bd73ded917420a6552", "apGroupName": "1-37호어린이공원", "installLocationDetail": "CCTV pole 중앙농구장 CCTV방향", "category": "공원", "categoryDetail": "공원", "addressDong": "제주특별자치도 제주시 도남동", "addressDetail": "제주시 도남동 46", "latitude": "33.496027", "longitude": "126.522556"},{"baseDate": "20200525", "macAddress": "dde6e2a9194c257e84f9ca9db74f323a324724a1d13b722bdd0c840286de10b1", "apGroupName": "1-18호어린이공원", "installLocationDetail": "클린하우스 pole", "category": "공원", "categoryDetail": "공원", "addressDong": "제주특별자치도 제주시 일도이동", "addressDetail": "제주시 일도2동 405-3", "latitude": "33.5066", "longitude": "126.54317"},{"baseDate": "20200525", "macAddress": "99d11dac81f53e0b226c57c0f1e6aa846dd069adefc31ee3a8bc93ca50208df3", "apGroupName": "20코스", "installLocationDetail": "IP주 해녀촌방향", "category": "올레코스", "categoryDetail": "올레코스", "addressDong": "제주특별자치도 제주시 구좌읍 김녕리", "addressDetail": "제주시 구좌읍 김녕리 497-9 ", "latitude": "33.558026", "longitude": "126.75548"},{"baseDate": "20200525", "macAddress": "7bc002cf478599709f4bbc1a9db91aa5e64eb5be94f53dcc5b2d52cecb68aa23", "apGroupName": "제주고산리유적안내센타", "installLocationDetail": "실내 안내부스 위", "category": "관광지", "categoryDetail": "공영관광지", "addressDong": "제주특별자치도 제주시 한경면 고산리", "addressDetail": "제주시 한경면 고산리 3650-1", "latitude": "33.304398", "longitude": "126.166763"},{"baseDate": "20200525", "macAddress": "e061b954d974e2be5179d40bbada84d768aef257748519eafe7b28123c4b7d4e", "apGroupName": "14코스", "installLocationDetail": "IP주 - 북 올레길", "category": "올레코스", "categoryDetail": "올레코스", "addressDong": "제주특별자치도 제주시 한림읍 월령리", "addressDetail": "제주시 한림읍 월령리 376-1", "latitude": "33.377008", "longitude": "126.214135"},{"baseDate": "20200525", "macAddress": "04b034a47a459067486eaf0843d4bc2ff6b58b9079be26dce26a1178c14b79ec", "apGroupName": "6코스", "installLocationDetail": "국궁장외벽 -동 올레길방향", "category": "올레코스", "categoryDetail": "올레코스", "addressDong": "제주특별자치도 서귀포시 보목동", "addressDetail": "서귀포시 보목동 1442-1", "latitude": "33.243436", "longitude": "126.589428"},{"baseDate": "20200525", "macAddress": "baf09ad8f1f8fb0625a2e030cc45fba1cca38731f56326178259eee6a01cada9", "apGroupName": "4코스", "installLocationDetail": "전주 - 동쪽 태흥 1리 쉼터 방향", "category": "올레코스", "categoryDetail": "올레코스", "addressDong": "제주특별자치도 서귀포시 남원읍 태흥리", "addressDetail": "서귀포시 남원읍 태흥리 1786-2", "latitude": "33.281872", "longitude": "126.733662"},{"baseDate": "20200525", "macAddress": "53fde8dc32ba9a010dc92573c8b324b3b750cee73ca9e27e337808baa9ffa1db", "apGroupName": "버스정류소_귀덕초등학교[남]", "installLocationDetail": "버스정류장 상부", "category": "버스정류소", "categoryDetail": "버스정류소", "addressDong": "제주특별자치도 제주시 한림읍 귀덕리", "addressDetail": "제주시 한림읍 귀덕리 1181-2", "latitude": "33.443533", "longitude": "126.292852"},{"baseDate": "20200525", "macAddress": "76a770c3b3e38506ae9f2eca19875f156bbe4f1844ceb065556381bfe7eb16f6", "apGroupName": "18코스", "installLocationDetail": "CCTV Pole 북쪽정자방향(남당모루쉼팡)", "category": "올레코스", "categoryDetail": "올레코스", "addressDong": "제주특별자치도 제주시 화북일동", "addressDetail": "제주시 화북일동 4269-9 (금산5길 30-5 앞)", "latitude": "33.526485", "longitude": "126.56409"},{"baseDate": "20200525", "macAddress": "f3df6262d96b976f43b564d82461366620172c98a6e8b3779d1169ac2edbb4fc", "apGroupName": "18코스", "installLocationDetail": "CCTV Pole 정자방향(수암정)", "category": "올레코스", "categoryDetail": "올레코스", "addressDong": "제주특별자치도 제주시 조천읍 조천리", "addressDetail": "제주시 조천읍 조천리 3118(조천3길 10 )", "latitude": "33.536172", "longitude": "126.632635"},{"baseDate": "20200525", "macAddress": "eacfc84067f3cc8e883d1411b9c728f4f4fd283be74b76f6bdbf054189fb67cd", "apGroupName": "버버스정류소_한일베라체 (한마음병원방면)", "installLocationDetail": "정류장천정", "category": "버스정류소", "categoryDetail": "버스정류소", "addressDong": "제주특별자치도 제주시 이도이동", "addressDetail": "제주시 이도2동 148-10(연신로 71 옆)", "latitude": "33.49481", "longitude": "126.548345"},{"baseDate": "20200525", "macAddress": "4ee1de967150517110257f2a6ba17ea797204380d374cd4e4aadbe2d1a469ac7", "apGroupName": "버스정류소_S중앙병원 (노형주공아파트방면)", "installLocationDetail": "정류장천정", "category": "버스정류소", "categoryDetail": "버스정류소", "addressDong": "제주특별자치도 제주시 노형동", "addressDetail": "제주시 노형동 291-20", "latitude": "33.450715", "longitude": "126.486475"},{"baseDate": "20200525", "macAddress": "a844536c76bba1d0154f7dc2e67bf1017a244f890ae67ac36ea43f5bb035f8c9", "apGroupName": "버스정류소_(구)중앙파출소", "installLocationDetail": "매표소 비가림 기둥 -남_(구)중앙파출소 정류장방향", "category": "버스정류소", "categoryDetail": "버스정류소", "addressDong": "제주특별자치도 서귀포시 서귀동", "addressDetail": "서귀포시 서귀동 312-6", "latitude": "33.247483", "longitude": "126.560103"},{"baseDate": "20200525", "macAddress": "a4339b9e3b4a671f8640b0bd5e1f240da48affcb0d8bd349cc988a3f8ea05d0c", "apGroupName": "버스정류소_해양연구소[북] ", "installLocationDetail": "정류장", "category": "버스정류소", "categoryDetail": "버스정류소", "addressDong": "제주특별자치도 제주시 조천읍 함덕리", "addressDetail": "제주시 조천읍 함덕리 3230-1", "latitude": "33.543865", "longitude": "126.65779"},{"baseDate": "20200525", "macAddress": "fdf3e7a7ef29b9e45c60f64a60263705061d9b8f793c3ae242353496cdf285cb", "apGroupName": "버스정류소_사라봉[북] )", "installLocationDetail": "정류장 천정", "category": "버스정류소", "categoryDetail": "버스정류소", "addressDong": "제주특별자치도 제주시 건입동", "addressDetail": "제주시 건입동 566", "latitude": "33.513038", "longitude": "126.544475"},{"baseDate": "20200525", "macAddress": "f04d386ca5ac84bd73a7b06904b0cba42933cf5c356c57198345b56a156efe2d", "apGroupName": "전기차충전소_서부소방서", "installLocationDetail": "전기차충전소인근 IP주", "category": "전기차충전소", "categoryDetail": "전기차충전소", "addressDong": "제주특별자치도 제주시 한림읍 동명리", "addressDetail": "제주시 한림읍 동명리 663(한림중앙로 150)", "latitude": "33.402942", "longitude": "126.269943"},{"baseDate": "20200525", "macAddress": "645b740880db52652c2ce2a9990e32195103e49a59374bf7208ff25ebf120301", "apGroupName": "전기차충전소_제주도청 2청사 후문 공영주차장", "installLocationDetail": "전기차충전소인근 IP주", "category": "전기차충전소", "categoryDetail": "전기차충전소", "addressDong": "제주특별자치도 제주시 연동", "addressDetail": "제주시 연동 322-8", "latitude": "33.488233", "longitude": "126.500163"},{"baseDate": "20200525", "macAddress": "af075f6d28a3cceedf23df93b40f5224324952b186ae86213a9bb077c0835969", "apGroupName": "중문관광단지", "installLocationDetail": "동쪽 옥상 -  동", "category": "관광지", "categoryDetail": "사설관광지", "addressDong": "제주특별자치도 서귀포시 색달동", "addressDetail": "서귀포시 색달동 2812-2 ( 중문관광로72번길 53)", "latitude": "33.250198", "longitude": "126.409039"},{"baseDate": "20200525", "macAddress": "c4382442121acfa665b1966dd130e209d1f3efadc45a84a4786a03b15ecbf6db", "apGroupName": "버스정류소_휴애리 자연생활공원 (올리소방면)", "installLocationDetail": "입간판 폴대", "category": "버스정류소", "categoryDetail": "버스정류소", "addressDong": "제주특별자치도 서귀포시 남원읍 신례리", "addressDetail": "서귀포시 남원읍 신례리 2081", "latitude": "33.308221", "longitude": "126.632676"},{"baseDate": "20200525", "macAddress": "ebf7cd9fddf028d358cb4734c4069771a4251ca722a6e20e5fe8566000c2c903", "apGroupName": "제주 마방목지", "installLocationDetail": "CCTV POLE", "category": "관광지", "categoryDetail": "사설관광지", "addressDong": "제주특별자치도 제주시 용강동", "addressDetail": "제주시 용강동 산 14-34(516로 2480)", "latitude": "33.42722", "longitude": "126.60442"},{"baseDate": "20200525", "macAddress": "fca10011db7228ecdab6f0fe5459a3e98b5783052aca4840880f39a0453c5fec", "apGroupName": "버스정류소-주공 3 4단지[남]삼아아파트 방면", "installLocationDetail": "버스정류소 상부", "category": "버스정류소", "categoryDetail": "버스정류소", "addressDong": "제주특별자치도 서귀포시 동홍동", "addressDetail": "서귀포시 동홍동 180-6", "latitude": "33.250085", "longitude": "126.571862"},{"baseDate": "20200525", "macAddress": "681da5fe76a47f50287de34229cbac4cab575f21a168f06367d2d1f1e62477f3", "apGroupName": "제주한란전시관", "installLocationDetail": "매표소홀", "category": "관광지", "categoryDetail": "공영관광지", "addressDong": "제주특별자치도 서귀포시 상효동", "addressDetail": "서귀포시 상효동 1421-15  ", "latitude": "33.296347", "longitude": "126.590537"},{"baseDate": "20200525", "macAddress": "b49eb44d52d8af1dd18d43919e955bd42bc08618ec73259518d3c8c4ccad31ab", "apGroupName": "버스정류소_대정환승정류장(대정읍사무소)", "installLocationDetail": "버스정류장 상부", "category": "버스정류소", "categoryDetail": "버스정류소", "addressDong": "제주특별자치도 서귀포시 대정읍 하모리", "addressDetail": "서귀포시 대정읍 하모리 1443-4   ", "latitude": "33.226038", "longitude": "126.251567"},{"baseDate": "20200525", "macAddress": "c175b36ce659d3c2342f2067a4e90a6f5ef1ad6145af77446447ac21e6a083dc", "apGroupName": "버스정류소_표선환승정류장(표선리 제주은행)[서]", "installLocationDetail": "버스정류장 상부", "category": "버스정류소", "categoryDetail": "버스정류소", "addressDong": "제주특별자치도 서귀포시 표선면 표선리", "addressDetail": "서귀포시 표선면 표선리 596-6    ", "latitude": "33.326912", "longitude": "126.833483"},{"baseDate": "20200525", "macAddress": "4d08e776e1d9de695c9db43fe432f709cfb2d973816adb3346e6df532d191887", "apGroupName": "포니벨리", "installLocationDetail": "건물 옥상", "category": "관광지", "categoryDetail": "사설관광지", "addressDong": "제주특별자치도 서귀포시 표선면 성읍리", "addressDetail": "서귀포시 표선면 성읍리 2684", "latitude": "33.403137", "longitude": "126.779266"},{"baseDate": "20200525", "macAddress": "7fcd471de827691e57a434948ea8b696af80afbf51bacb3b9f0cd2de09324101", "apGroupName": "솔동산 문화의 거리", "installLocationDetail": "방범CCTV 폴대 2", "category": "테마거리", "categoryDetail": "테마거리", "addressDong": "제주특별자치도 서귀포시 서귀동", "addressDetail": "서귀포시 서귀동 700-4 ", "latitude": "33.241738", "longitude": "126.562563"},{"baseDate": "20200525", "macAddress": "3f4e989b5a45378b38e816d081c5aa631c04fb939a79bf1b83753dedab116773", "apGroupName": "표선 해비치 해변", "installLocationDetail": "상황실 외벽 동", "category": "해변", "categoryDetail": "해변", "addressDong": "제주특별자치도 서귀포시 표선면 표선리", "addressDetail": "서귀포시 표선면 표선리 44-13번지      ", "latitude": "33.325913", "longitude": "126.843017"},{"baseDate": "20200525", "macAddress": "8f7553def511182d6d8815b42f459e452c45538aad88d7007937c6ca2fd24028", "apGroupName": "삼성혈", "installLocationDetail": "토산품점 남", "category": "관광지", "categoryDetail": "사설관광지", "addressDong": "제주특별자치도 제주시 이도일동", "addressDetail": "제주시 삼성로 22(이도일동 1313) ", "latitude": "33.504548", "longitude": "126.529491"},{"baseDate": "20200525", "macAddress": "3df41ade06d792a7fb9970ce30b3f246fea2b1805d7529e71ae4b17301396029", "apGroupName": "신산공원", "installLocationDetail": "CCTV폴에 공원 중앙광장방향 지향 1개", "category": "공원", "categoryDetail": "공원", "addressDong": "제주특별자치도 제주시 이도일동", "addressDetail": "제주시 이도1동 1261-1", "latitude": "33.505059", "longitude": "126.532024"},{"baseDate": "20200525", "macAddress": "a2892cb36763c87755654c7a09e0446d30349659639dd7aeb37fb08154f4a91e", "apGroupName": "버스정류소_노형오거리[동]", "installLocationDetail": "정류장 지붕에 무지향 1개", "category": "버스정류소", "categoryDetail": "버스정류소", "addressDong": "제주특별자치도 제주시 노형동", "addressDetail": "제주시 노형동 919 (1100로 3348) ", "latitude": "33.48502", "longitude": "126.480105"},{"baseDate": "20200525", "macAddress": "7b9f12518c603554ed046d1f709e3febb7c7fed95ad1e9a6e71ce39752c16453", "apGroupName": "노형근린공원", "installLocationDetail": "공원화장실외벽에 지향성 1개 서", "category": "공원", "categoryDetail": "공원", "addressDong": "제주특별자치도 제주시 노형동", "addressDetail": "제주시 노형동 731", "latitude": "33.480525", "longitude": "126.48159"},{"baseDate": "20200525", "macAddress": "e2e8ec3f060ddd6ec9867b6029aac6eb3432902e6df1eac0512fed7b42461a0c", "apGroupName": "버스정류소_함덕리 3구(함덕해수욕장방면)", "installLocationDetail": "길건너 정류장 방향 지향 1개", "category": "버스정류소", "categoryDetail": "버스정류소", "addressDong": "제주특별자치도 제주시 조천읍 함덕리", "addressDetail": "제주시 조천읍 함덕리 1270-1 (신북로 529)", "latitude": "33.541669", "longitude": "126.666031"},{"baseDate": "20200525", "macAddress": "9ae8bfc61dbecc4416c3e9d415ace1db7820488ac50702f8ceecefd5bf55218f", "apGroupName": "방일리공원", "installLocationDetail": "정류장 옆 가로등에 방일리공원 방향 지향성 1개", "category": "공원", "categoryDetail": "공원", "addressDong": "제주특별자치도 제주시 노형동", "addressDetail": "제주시 노형동 755 (정원로 49)", "latitude": "33.477786", "longitude": "126.476669"},{"baseDate": "20200525", "macAddress": "b88704f658ccb04345fb8555a6b03d46274e2e59ce1eafe127f1e44dbaabaeaa", "apGroupName": "버스정류소_제주동중학교[남] ", "installLocationDetail": "버스정류장 지붕위", "category": "버스정류소", "categoryDetail": "버스정류소", "addressDong": "제주특별자치도 제주시 화북일동", "addressDetail": "제주시 화북1동 1235-5", "latitude": "33.519863", "longitude": "126.571994"},{"baseDate": "20200525", "macAddress": "ec29e9e82c454dd35ff44a51e43ac730f00363c7a9517e0ffbb56fce927cb7fa", "apGroupName": "버스정류소-남원1리사무소[북]광지동 방면 ", "installLocationDetail": "버스정류소 상부", "category": "버스정류소", "categoryDetail": "버스정류소", "addressDong": "제주특별자치도 서귀포시 남원읍 남원리", "addressDetail": "서귀포시 남원읍 남원리 1339-3", "latitude": "33.277883", "longitude": "126.714058"},{"baseDate": "20200525", "macAddress": "8604f859648793b3e0bc2f2ba3852b1f80cd47040dcfc0ab2af6f96e4a8f6372", "apGroupName": "버스정류소_제주동중학교[북]", "installLocationDetail": "버스정류장 지붕위", "category": "버스정류소", "categoryDetail": "버스정류소", "addressDong": "제주특별자치도 제주시 화북일동", "addressDetail": "제주시 화북1동 1239-11", "latitude": "33.519648", "longitude": "126.570814"},{"baseDate": "20200525", "macAddress": "6dd63b345cafa586b3d801cff044bfef7a9e590cc2c4d1d199f48de153113420", "apGroupName": "운진항", "installLocationDetail": "여객선 대합실 홀 천정", "category": "공항/터미널/대합실", "categoryDetail": "항구", "addressDong": "제주특별자치도 서귀포시 대정읍 하모리", "addressDetail": "서귀포시 대정읍 하모리 646-20", "latitude": "33.210075", "longitude": "126.258438"},{"baseDate": "20200525", "macAddress": "a114de65bd3ed49e7c8e3a023033d22f2118b9f4ef433fdfed0339cc09c1a7c9", "apGroupName": "전기차충전소_한림읍사무소", "installLocationDetail": "충전소 뒤 우측 벽면", "category": "전기차충전소", "categoryDetail": "전기차충전소", "addressDong": "제주특별자치도 제주시 한림읍 한림리", "addressDetail": "제주시 한림읍 한림리 919", "latitude": "33.410602", "longitude": "126.267299"},{"baseDate": "20200525", "macAddress": "f819871a735dbf8f8bd1dcf3eb8534130cfa817c5a46456c429adb647c4823ac", "apGroupName": "중앙공원", "installLocationDetail": "방범CCTV 폴대", "category": "공원", "categoryDetail": "공원", "addressDong": "제주특별자치도 서귀포시 서귀동", "addressDetail": "서귀포시 서귀동 277-1  (중앙로62번길 18 )", "latitude": "33.249928", "longitude": "126.563595"},{"baseDate": "20200525", "macAddress": "3a3c547c953b6a8b9a027e893338c6982639e2a8e3e498f238b8e1aed0b27f64", "apGroupName": "칠십리공원", "installLocationDetail": "CCTV폴에 설치-남", "category": "공원", "categoryDetail": "공원", "addressDong": "제주특별자치도 서귀포시 서홍동", "addressDetail": "서귀포시 서홍동 571", "latitude": "33.247172", "longitude": "126.553177"},{"baseDate": "20200525", "macAddress": "df68676f207b1f9c507be011ff52eef9d1d4d8b8c2c1a72bfc4af8452c164d6d", "apGroupName": "천지연폭포", "installLocationDetail": "폭포쪽 CCTV -북", "category": "관광지", "categoryDetail": "공영관광지", "addressDong": "제주특별자치도 서귀포시 서귀동", "addressDetail": "서귀포시 서귀동 809 ", "latitude": "33.246624", "longitude": "126.555008"},{"baseDate": "20200525", "macAddress": "af075f6d28a3cceedf23df93b40f5224324952b186ae86213a9bb077c0835969", "apGroupName": "중문관광단지", "installLocationDetail": "동쪽 옥상 -  동", "category": "관광지", "categoryDetail": "사설관광지", "addressDong": "제주특별자치도 서귀포시 색달동", "addressDetail": "서귀포시 색달동 2812-2 ( 중문관광로72번길 53)", "latitude": "33.250198", "longitude": "126.409039"},{"baseDate": "20200525", "macAddress": "f04d386ca5ac84bd73a7b06904b0cba42933cf5c356c57198345b56a156efe2d", "apGroupName": "전기차충전소_서부소방서", "installLocationDetail": "전기차충전소인근 IP주", "category": "전기차충전소", "categoryDetail": "전기차충전소", "addressDong": "제주특별자치도 제주시 한림읍 동명리", "addressDetail": "제주시 한림읍 동명리 663(한림중앙로 150)", "latitude": "33.402942", "longitude": "126.269943"},{"baseDate": "20200525", "macAddress": "fdf3e7a7ef29b9e45c60f64a60263705061d9b8f793c3ae242353496cdf285cb", "apGroupName": "버스정류소_사라봉[북] )", "installLocationDetail": "정류장 천정", "category": "버스정류소", "categoryDetail": "버스정류소", "addressDong": "제주특별자치도 제주시 건입동", "addressDetail": "제주시 건입동 566", "latitude": "33.513038", "longitude": "126.544475"},{"baseDate": "20200525", "macAddress": "f3df6262d96b976f43b564d82461366620172c98a6e8b3779d1169ac2edbb4fc", "apGroupName": "18코스", "installLocationDetail": "CCTV Pole 정자방향(수암정)", "category": "올레코스", "categoryDetail": "올레코스", "addressDong": "제주특별자치도 제주시 조천읍 조천리", "addressDetail": "제주시 조천읍 조천리 3118(조천3길 10 )", "latitude": "33.536172", "longitude": "126.632635"},{"baseDate": "20200525", "macAddress": "76a770c3b3e38506ae9f2eca19875f156bbe4f1844ceb065556381bfe7eb16f6", "apGroupName": "18코스", "installLocationDetail": "CCTV Pole 북쪽정자방향(남당모루쉼팡)", "category": "올레코스", "categoryDetail": "올레코스", "addressDong": "제주특별자치도 제주시 화북일동", "addressDetail": "제주시 화북일동 4269-9 (금산5길 30-5 앞)", "latitude": "33.526485", "longitude": "126.56409"},{"baseDate": "20200525", "macAddress": "baf09ad8f1f8fb0625a2e030cc45fba1cca38731f56326178259eee6a01cada9", "apGroupName": "4코스", "installLocationDetail": "전주 - 동쪽 태흥 1리 쉼터 방향", "category": "올레코스", "categoryDetail": "올레코스", "addressDong": "제주특별자치도 서귀포시 남원읍 태흥리", "addressDetail": "서귀포시 남원읍 태흥리 1786-2", "latitude": "33.281872", "longitude": "126.733662"},{"baseDate": "20200525", "macAddress": "b90c9d0c9c7c0afbe2064fda4695d0924131f4154e13e1e81973510df053342e", "apGroupName": "삼양검은모래해변", "installLocationDetail": "화장실 동쪽 IP주에 정류장 방향 지향 1개", "category": "해변", "categoryDetail": "해변", "addressDong": "제주특별자치도 제주시 삼양일동", "addressDetail": "제주시 삼양1동 1569-42(선사로8길 13-4)", "latitude": "33.525758", "longitude": "126.586848"},{"baseDate": "20200525", "macAddress": "0aba945746ea11109f08d28f90bfd805b87549ad664c13ea42811935e56ab6f7", "apGroupName": "절물자연휴양림", "installLocationDetail": "목공예체험장 옥탑 남", "category": "관광지", "categoryDetail": "공영관광지", "addressDong": "제주특별자치도 제주시 봉개동", "addressDetail": "제주시 명림로 584(봉개동 산78-1) ", "latitude": "33.439582", "longitude": "126.624996"},{"baseDate": "20200525", "macAddress": "3f4e989b5a45378b38e816d081c5aa631c04fb939a79bf1b83753dedab116773", "apGroupName": "표선 해비치 해변", "installLocationDetail": "상황실 외벽 동", "category": "해변", "categoryDetail": "해변", "addressDong": "제주특별자치도 서귀포시 표선면 표선리", "addressDetail": "서귀포시 표선면 표선리 44-13번지      ", "latitude": "33.325913", "longitude": "126.843017"},{"baseDate": "20200525", "macAddress": "51aa7b28eaa85154aa4234cbce6124c4f7634bd42038c5b0ced1f086d0689544", "apGroupName": "신양 섭지코지 해변", "installLocationDetail": "상황실 외벽 서", "category": "해변", "categoryDetail": "해변", "addressDong": "제주특별자치도 서귀포시 성산읍 고성리", "addressDetail": "서귀포시 성산읍 고성리 186-2번지선      ", "latitude": "33.435044", "longitude": "126.922887"},{"baseDate": "20200525", "macAddress": "7fcd471de827691e57a434948ea8b696af80afbf51bacb3b9f0cd2de09324101", "apGroupName": "솔동산 문화의 거리", "installLocationDetail": "방범CCTV 폴대 2", "category": "테마거리", "categoryDetail": "테마거리", "addressDong": "제주특별자치도 서귀포시 서귀동", "addressDetail": "서귀포시 서귀동 700-4 ", "latitude": "33.241738", "longitude": "126.562563"},{"baseDate": "20200525", "macAddress": "4d08e776e1d9de695c9db43fe432f709cfb2d973816adb3346e6df532d191887", "apGroupName": "포니벨리", "installLocationDetail": "건물 옥상", "category": "관광지", "categoryDetail": "사설관광지", "addressDong": "제주특별자치도 서귀포시 표선면 성읍리", "addressDetail": "서귀포시 표선면 성읍리 2684", "latitude": "33.403137", "longitude": "126.779266"},{"baseDate": "20200525", "macAddress": "dcf1c9b79c066cf7631972a83b71fb878e0fea679d3226db74326f65822de5bc", "apGroupName": "자연사랑갤러리", "installLocationDetail": "건물외벽", "category": "관광지", "categoryDetail": "사설관광지", "addressDong": "제주특별자치도 서귀포시 표선면 가시리", "addressDetail": "서귀포시 표선면 가시리 1924 ", "latitude": "33.35498", "longitude": "126.771896"},{"baseDate": "20200525", "macAddress": "11858f783e18ee0d15b44d17669739bca2735c90d6a8b87b5520e72ec0f8a82a", "apGroupName": "자연사랑갤러리", "installLocationDetail": "매표소홀", "category": "관광지", "categoryDetail": "사설관광지", "addressDong": "제주특별자치도 서귀포시 표선면 가시리", "addressDetail": "서귀포시 표선면 가시리 1924 ", "latitude": "33.355389", "longitude": "126.771622"},{"baseDate": "20200525", "macAddress": "c175b36ce659d3c2342f2067a4e90a6f5ef1ad6145af77446447ac21e6a083dc", "apGroupName": "버스정류소_표선환승정류장(표선리 제주은행)[서]", "installLocationDetail": "버스정류장 상부", "category": "버스정류소", "categoryDetail": "버스정류소", "addressDong": "제주특별자치도 서귀포시 표선면 표선리", "addressDetail": "서귀포시 표선면 표선리 596-6    ", "latitude": "33.326912", "longitude": "126.833483"},{"baseDate": "20200525", "macAddress": "b49eb44d52d8af1dd18d43919e955bd42bc08618ec73259518d3c8c4ccad31ab", "apGroupName": "버스정류소_대정환승정류장(대정읍사무소)", "installLocationDetail": "버스정류장 상부", "category": "버스정류소", "categoryDetail": "버스정류소", "addressDong": "제주특별자치도 서귀포시 대정읍 하모리", "addressDetail": "서귀포시 대정읍 하모리 1443-4   ", "latitude": "33.226038", "longitude": "126.251567"},{"baseDate": "20200525", "macAddress": "acc280fe1a53127d8d14126810bacaa0d71a7c689936c3fdf2932bda412e5c91", "apGroupName": "성산일출봉", "installLocationDetail": "화장실 외벽 동", "category": "관광지", "categoryDetail": "공영관광지", "addressDong": "제주특별자치도 서귀포시 성산읍 성산리", "addressDetail": "서귀포시 성산읍 성산리 114-3 ", "latitude": "33.462205", "longitude": "126.935802"},{"baseDate": "20200525", "macAddress": "681da5fe76a47f50287de34229cbac4cab575f21a168f06367d2d1f1e62477f3", "apGroupName": "제주한란전시관", "installLocationDetail": "매표소홀", "category": "관광지", "categoryDetail": "공영관광지", "addressDong": "제주특별자치도 서귀포시 상효동", "addressDetail": "서귀포시 상효동 1421-15  ", "latitude": "33.296347", "longitude": "126.590537"},{"baseDate": "20200525", "macAddress": "fca10011db7228ecdab6f0fe5459a3e98b5783052aca4840880f39a0453c5fec", "apGroupName": "버스정류소-주공 3 4단지[남]삼아아파트 방면", "installLocationDetail": "버스정류소 상부", "category": "버스정류소", "categoryDetail": "버스정류소", "addressDong": "제주특별자치도 서귀포시 동홍동", "addressDetail": "서귀포시 동홍동 180-6", "latitude": "33.250085", "longitude": "126.571862"},{"baseDate": "20200525", "macAddress": "751b038a23b42d78f7859b2f7623fa4325af9da5771de4ccf2ad98c6ceb3bb5c", "apGroupName": "신천리 벽화마을", "installLocationDetail": "CCTV POLE", "category": "테마거리", "categoryDetail": "테마거리", "addressDong": "제주특별자치도 서귀포시 성산읍 신천리", "addressDetail": "서귀포시 성산읍 신천리 478-1 (신천리 복지회관앞 CCTV)", "latitude": "33.344071", "longitude": "126.849663"},{"baseDate": "20200525", "macAddress": "754a381926e4582e506a20a23970cbe6694d46c4668195437008ed7fdb1f346e", "apGroupName": "아랑조을거리", "installLocationDetail": "기둥 상부", "category": "테마거리", "categoryDetail": "테마거리", "addressDong": "제주특별자치도 서귀포시 서귀동", "addressDetail": "서귀포시 서귀동 312-7", "latitude": "33.248226", "longitude": "126.559493"},{"baseDate": "20200525", "macAddress": "c8b3eef78529c2fc01748abc4e52b8f1396cd3794cafed78a3a4a1fe3b61a3d0", "apGroupName": "전기차충전소_조천도서관", "installLocationDetail": "건물외벽", "category": "전기차충전소", "categoryDetail": "전기차충전소", "addressDong": "제주특별자치도 제주시 조천읍", "addressDetail": "제주시 조천읍 일주동로 1189", "latitude": "33.537356", "longitude": "126.667876"},{"baseDate": "20200525", "macAddress": "ebf7cd9fddf028d358cb4734c4069771a4251ca722a6e20e5fe8566000c2c903", "apGroupName": "제주 마방목지", "installLocationDetail": "CCTV POLE", "category": "관광지", "categoryDetail": "사설관광지", "addressDong": "제주특별자치도 제주시 용강동", "addressDetail": "제주시 용강동 산 14-34(516로 2480)", "latitude": "33.42722", "longitude": "126.60442"},{"baseDate": "20200525", "macAddress": "c4382442121acfa665b1966dd130e209d1f3efadc45a84a4786a03b15ecbf6db", "apGroupName": "버스정류소_휴애리 자연생활공원 (올리소방면)", "installLocationDetail": "입간판 폴대", "category": "버스정류소", "categoryDetail": "버스정류소", "addressDong": "제주특별자치도 서귀포시 남원읍 신례리", "addressDetail": "서귀포시 남원읍 신례리 2081", "latitude": "33.308221", "longitude": "126.632676"},{"baseDate": "20200525", "macAddress": "3755b2c17d85cbd95bd500fe4caeef2f9e6b92eb72a57969f9d75c96c04e7bde", "apGroupName": "제주돌마을공원", "installLocationDetail": "수석박물관 실내", "category": "관광지", "categoryDetail": "사설관광지", "addressDong": "제주특별자치도 제주시 한림읍 금능리", "addressDetail": "제주시 한림읍 금능리 368-2", "latitude": "33.353754", "longitude": "126.253744"},{"baseDate": "20200525", "macAddress": "6f3e01dc1239c762fa4087d131720106e8b305938e209fcb3a97b72b48737eea", "apGroupName": "서귀포야구장", "installLocationDetail": "외벽 야구장", "category": "체육시설", "categoryDetail": "체육시설", "addressDong": "제주특별자치도 서귀포시 강정동", "addressDetail": "서귀포시 강정동 1552-3", "latitude": "33.260439", "longitude": "126.503763"},{"baseDate": "20200525", "macAddress": "3f2a2b7593034ded42c8ad8618326aad68ecc5c37c3054467322ec707f9d5f38", "apGroupName": "오션파크", "installLocationDetail": " 매표소 내", "category": "관광지", "categoryDetail": "사설관광지", "addressDong": "제주특별자치도 서귀포시 성산읍 시흥리", "addressDetail": "서귀포시 성산읍 시흥리 12-97", "latitude": "33.478763", "longitude": "126.913513"},{"baseDate": "20200525", "macAddress": "b52a98a66f2f2cf254d9c46e9370f37fe4d58582a87542429f77bc9535e780d5", "apGroupName": "버스정류소_국립제주박물관(천수동방면)", "installLocationDetail": "길건너 정류장 방향 지향 1개", "category": "버스정류소", "categoryDetail": "버스정류소", "addressDong": "제주특별자치도 제주시 화북이동", "addressDetail": "제주시 화북2동 4942-4(일주동로 34) 앞", "latitude": "33.512516", "longitude": "126.549934"},{"baseDate": "20200525", "macAddress": "b070049cde1210f239796829d9d74c9a327c93cd2392cf20e73a8e2afda34e3b", "apGroupName": "버스정류소_용문마을[동]", "installLocationDetail": "길건너 정류장 방향 지향 1개", "category": "버스정류소", "categoryDetail": "버스정류소", "addressDong": "제주특별자치도 제주시 용담이동", "addressDetail": "제주시 용담2동 645-1 (용문로 143) ", "latitude": "33.507176", "longitude": "126.509335"},{"baseDate": "20200525", "macAddress": "704f065d074cb632bbf456c80d495417644569933a0ddbf4fe620d7d98bca004", "apGroupName": "버스정류소_중문관광단지입구[남]", "installLocationDetail": "버스정류장 상부", "category": "버스정류소", "categoryDetail": "버스정류소", "addressDong": "제주특별자치도 서귀포시 색달동", "addressDetail": "서귀포시 색달동 2558 (천제연로 70)", "latitude": "33.255564", "longitude": "126.413094"},{"baseDate": "20200525", "macAddress": "b90c9d0c9c7c0afbe2064fda4695d0924131f4154e13e1e81973510df053342e", "apGroupName": "삼양검은모래해변", "installLocationDetail": "화장실 동쪽 IP주에 정류장 방향 지향 1개", "category": "해변", "categoryDetail": "해변", "addressDong": "제주특별자치도 제주시 삼양일동", "addressDetail": "제주시 삼양1동 1569-42(선사로8길 13-4)", "latitude": "33.525758", "longitude": "126.586848"},{"baseDate": "20200525", "macAddress": "7ae7e295500c70014e008f84059a62a661d6668a71e6b005ad3f82fdd7ba9875", "apGroupName": "서빈백사해수욕장", "installLocationDetail": "화장실 및 탈의실 옆 동측 KT 강관주-동", "category": "해변", "categoryDetail": "해변", "addressDong": "제주특별자치도 제주시 우도면 연평리", "addressDetail": "제주시 우도면 연평리 2512-3", "latitude": "33.502028", "longitude": "126.943914"},{"baseDate": "20200525", "macAddress": "cd07b24d3f441725883bcda8562071785b7e49e510e13215875a0b605a5d6dd4", "apGroupName": "제주종합비지니스센터", "installLocationDetail": "1층 관광협회 홍보관", "category": "공공기관", "categoryDetail": "다중이용시설", "addressDong": "제주특별자치도 제주시 영평동", "addressDetail": "제주시 영평동 2170-4 (첨단로 213-65)", "latitude": "33.452381", "longitude": "126.572618"},{"baseDate": "20200525", "macAddress": "e351d962f13f03e892333454bbec68e5ba4705d7fcde57d4e80f0d8327482632", "apGroupName": "세화어린이공원", "installLocationDetail": "CCTV POLE", "category": "공원", "categoryDetail": "공원", "addressDong": "제주특별자치도 제주시 구좌읍 세화리", "addressDetail": "제주시 구좌읍 세화리 3645-1", "latitude": "33.525945", "longitude": "126.854617"},{"baseDate": "20200525", "macAddress": "8b25e58163070d108e35d0a99b359d2ec5d70778f0d7d9fa484e354f756c6744", "apGroupName": "46호공원", "installLocationDetail": "CCTV POLE", "category": "공원", "categoryDetail": "공원", "addressDong": "제주특별자치도 제주시 연동", "addressDetail": "제주시 연동 1962-1", "latitude": "33.490201", "longitude": "126.484361"},{"baseDate": "20200525", "macAddress": "b4466a8a79574564c700951d9261f0f35858d81ef0e8315ff0af01661c4d48ba", "apGroupName": "버스정류소_고성리 성산농협", "installLocationDetail": "버스정류장 상부", "category": "버스정류소", "categoryDetail": "버스정류소", "addressDong": "제주특별자치도 서귀포시 성산읍 고성리", "addressDetail": "서귀포시 성산읍 고성리 1106-12 앞", "latitude": "33.445896", "longitude": "126.912589"},{"baseDate": "20200525", "macAddress": "dbac548bc3471ce73480ec65581ad0123c1cfddd0f3baf588cbc47c1e1a4d95a", "apGroupName": "우도 망루등대", "installLocationDetail": "가로등 상부-남", "category": "관광지", "categoryDetail": "공영관광지", "addressDong": "제주특별자치도 제주시 우도면 연평리", "addressDetail": "제주시  우도면  연평리 790-1  우도자연 앞 망루등대", "latitude": "33.524124", "longitude": "126.952293"},{"baseDate": "20200525", "macAddress": "655715a606ff0a81a388a56f70dfe65d98e8c938b36b3797e59bdea582bfc0b9", "apGroupName": "평수포구", "installLocationDetail": "클린하우스 IP주", "category": "해변", "categoryDetail": "해변", "addressDong": "제주특별자치도 제주시 한림읍 수원리", "addressDetail": "제주시 한림읍 수원리 960-6", "latitude": "33.427897", "longitude": "126.26337"},{"baseDate": "20200525", "macAddress": "ad4294d22d6a4611d4710602a2295f9f65bd6b2a8cbd869e88e94d638c1a912d", "apGroupName": "17코스", "installLocationDetail": "IP주 이호해변방향", "category": "올레코스", "categoryDetail": "올레코스", "addressDong": "제주특별자치도 제주시 이호일동", "addressDetail": "제주시 이호일동 1788-13 ", "latitude": "33.497164", "longitude": "126.450058"},{"baseDate": "20200525", "macAddress": "ddbb512057aea4003fdd24e858e1ca9d61c6bc18cf2f5854ce7699b149326477", "apGroupName": "15코스", "installLocationDetail": "기지국 - 서쪽 방향 올레길", "category": "올레코스", "categoryDetail": "올레코스", "addressDong": "제주특별자치도 제주시 한림읍 귀덕리", "addressDetail": "제주시 한림읍 귀덕리 1573", "latitude": "33.434111", "longitude": "126.294244"},{"baseDate": "20200525", "macAddress": "27b59efcb8bc663a17438346fd70cd5e3c8748c2a75a9a75535213543c8a1974", "apGroupName": "버스정류소_애월고등학교[남]", "installLocationDetail": "IP주- 건너편 애월고등학교 (남)정류장 방향", "category": "버스정류소", "categoryDetail": "버스정류소", "addressDong": "제주특별자치도 제주시 애월읍 고내리", "addressDetail": "제주시 애월읍 고내리 830 ", "latitude": "33.462361", "longitude": "126.334651"},{"baseDate": "20200525", "macAddress": "100b3e9fb36f2749aeaabc6d6bbf195181aa4cf2914dd4ea57229948a7eec4b4", "apGroupName": "115호공원", "installLocationDetail": "CCTV POLE", "category": "공원", "categoryDetail": "공원", "addressDong": "제주특별자치도 제주시 아라일동", "addressDetail": "제주시 아라1동 6071", "latitude": "33.471849", "longitude": "126.542857"},{"baseDate": "20200525", "macAddress": "43a9f3edbd3a3c2cf37625e9f85484028bda965778121e44e4109f23a080bf20", "apGroupName": "에코촌 유스호스텔", "installLocationDetail": "1층 복도", "category": "관광지", "categoryDetail": "공영관광지", "addressDong": "제주특별자치도 제주시 조천읍 선흘리", "addressDetail": "제주시 조천읍 선흘리 2610", "latitude": "33.516889", "longitude": "126.70376"},{"baseDate": "20200525", "macAddress": "fe001d652f9e0691699ed13eda141829f029ff19f2ce23a05bd39c832a936b6c", "apGroupName": "버스정류소_하귀우체국[남]", "installLocationDetail": "버스정류장 상부", "category": "버스정류소", "categoryDetail": "버스정류소", "addressDong": "제주특별자치도 제주시 애월읍 하귀2리", "addressDetail": "제주시 애월읍 하귀2리 1385", "latitude": "33.481223", "longitude": "126.404533"},{"baseDate": "20200525", "macAddress": "1b8f096ba4ce9f7c9b75ef5c9ff0a4da69bc44600265e50a8e4ff91668cdf0c6", "apGroupName": "버스정류소_성산고등학교[북] ", "installLocationDetail": "버스정류장 상부", "category": "버스정류소", "categoryDetail": "버스정류소", "addressDong": "제주특별자치도 서귀포시 성산읍 오조리", "addressDetail": "서귀포시 성산읍  오조리 362-1 앞", "latitude": "33.468591", "longitude": "126.916894"},{"baseDate": "20200525", "macAddress": "8f69870ae23c16f8bd74f02c86136329bf516cb8a1cae8d511e9427c50f55578", "apGroupName": "버스정류소_남원포구입구(남원읍사무소(남) 방면)", "installLocationDetail": "버스정류장 상부", "category": "버스정류소", "categoryDetail": "버스정류소", "addressDong": "제주특별자치도 서귀포시 남원읍 남원리", "addressDetail": "서귀포시 남원읍 남원리 113-4 ", "latitude": "33.278732", "longitude": "126.717885"},{"baseDate": "20200525", "macAddress": "50a32f4d67828da98f5f07313646327128621e1149fd3b89e9fa77b52b67c14c", "apGroupName": "버스정류소_동홍 사거리(주공 2단지 방면)", "installLocationDetail": "가로등-건너편 동홍사거리(남) 정류장방향", "category": "버스정류소", "categoryDetail": "버스정류소", "addressDong": "제주특별자치도 서귀포시 동홍동", "addressDetail": "서귀포시 동홍동 462-3", "latitude": "33.254462", "longitude": "126.568457"},{"baseDate": "20200525", "macAddress": "f0046ffe8dce965e035ea82eb65d91992e054e2b8dbd2052ee49a7d15c891d15", "apGroupName": "서귀포시외버스터미널", "installLocationDetail": "매표소", "category": "공항/터미널/대합실", "categoryDetail": "시외버스터미널", "addressDong": "제주특별자치도 서귀포시 법환동", "addressDetail": "서귀포시 법환동 843 ", "latitude": "33.248987", "longitude": "126.508232"},{"baseDate": "20200525", "macAddress": "949a573dc2ac1090c30918dd159b4bcba6672d894a5e33d53bec0f6e674efb7d", "apGroupName": "솔동산 문화의 거리", "installLocationDetail": "단속CCTV 폴대 2", "category": "테마거리", "categoryDetail": "테마거리", "addressDong": "제주특별자치도 서귀포시 서귀동", "addressDetail": "서귀포시 서귀동 573-11 ", "latitude": "33.245155", "longitude": "126.564338"},{"baseDate": "20200525", "macAddress": "43ed55ff00f83d1903ae153362acdcdf85ac042f4433745d0a09f188ab0f5c1d", "apGroupName": "문화예술의 거리 ", "installLocationDetail": " 어린이 CCTV 서", "category": "테마거리", "categoryDetail": "테마거리", "addressDong": "제주특별자치도 제주시 삼도이동", "addressDetail": "제주시 관덕로6길 11", "latitude": "33.512349", "longitude": "126.52211"},{"baseDate": "20200525", "macAddress": "bba25904e29c974b403ae1f55c9c6ffbb3e24c454fe4f4d4fe11239ae9d2920e", "apGroupName": "칠성로 쇼핑거리", "installLocationDetail": "주정차무인단속", "category": "테마거리", "categoryDetail": "테마거리", "addressDong": "제주특별자치도 제주시 일도일동", "addressDetail": "제주시 관덕로 13길 14 ", "latitude": "33.514451", "longitude": "126.5262"},{"baseDate": "20200525", "macAddress": "95a477b429524ff21cc1af09e3a1ba6686e81ef6f39082b9606d6d45ec7f5083", "apGroupName": "한라생태숲", "installLocationDetail": " 안내소 벽면 북", "category": "숲길", "categoryDetail": "숲길", "addressDong": "제주특별자치도 제주시 용강동", "addressDetail": "제주시 516로 2596(용강동)", "latitude": "33.430931", "longitude": "126.596935"},{"baseDate": "20200525", "macAddress": "d3f517e32640e50a47459ebc395d0a315dfd25c3632b1389879d0d992ff7c60c", "apGroupName": "버스정류소_대천환승정류장(종점)", "installLocationDetail": "대천동버스정류장", "category": "버스정류소", "categoryDetail": "버스정류소", "addressDong": "제주특별자치도 제주시 구좌읍 송당리", "addressDetail": "제주시 구좌읍 대천길 2-2 앞(송당리 산 126-3) ", "latitude": "33.436243", "longitude": "126.736818"},{"baseDate": "20200525", "macAddress": "b00f1a2467e79e5c868cc9f6217985bc406244c06653383b55be4f431b542775", "apGroupName": "로케디오월드", "installLocationDetail": "매표소", "category": "관광지", "categoryDetail": "사설관광지", "addressDong": "제주특별자치도 제주시 애월읍 봉성리", "addressDetail": "제주시 애월읍 화전길 3 ", "latitude": "33.352171", "longitude": "126.360491"},{"baseDate": "20200525", "macAddress": "23c80fd5f31a6152ac607922fc296978048dcde65bac3834723072d31b44a995", "apGroupName": "18코스", "installLocationDetail": "삼양해수욕장 동쪽 공중화장실 북동", "category": "올레코스", "categoryDetail": "올레코스", "addressDong": "제주특별자치도 제주시 삼양일동", "addressDetail": "제주시 서흘1길 32 ", "latitude": "33.529512", "longitude": "126.589086"},{"baseDate": "20200525", "macAddress": "c0433d882b4c916579c2bfe61710860bd195eb07881fd2192b0f7ec79bf04517", "apGroupName": "세화 해변", "installLocationDetail": "남자화장실 북", "category": "해변", "categoryDetail": "해변", "addressDong": "제주특별자치도 제주시 구좌읍 세화리", "addressDetail": "제주시 구좌읍 해맞이해안로 1391 x", "latitude": "33.528317", "longitude": "126.857243"},{"baseDate": "20200525", "macAddress": "4f704d667ed41bf5f82904456f7cfa8b84550d1c19b70fd31e3b25ef547d701e", "apGroupName": "버스정류소_산천단 한국폴리텍대학", "installLocationDetail": "길건너 정류장 방향 지향 1개", "category": "버스정류소", "categoryDetail": "버스정류소", "addressDong": "제주특별자치도 제주시 아라일동", "addressDetail": "제주시 아라동  371-5 ", "latitude": "33.44799", "longitude": "126.55547"},{"baseDate": "20200525", "macAddress": "9f9c480c92efa07f75ab43c4382006ac38c39959c3bdba73b0c90619f715f642", "apGroupName": "제주국제공항", "installLocationDetail": "공항 1층 GATE 5 상단 기둥 남", "category": "공항/터미널/대합실", "categoryDetail": "공항", "addressDong": "제주특별자치도 제주시 용담이동", "addressDetail": "제주시 용담2동 2002", "latitude": "33.50615", "longitude": "126.492643"},{"baseDate": "20200525", "macAddress": "1c9562c6eb4d39421ef8fa1ff63f828913e35df6604d87dc29fe1fccb619466d", "apGroupName": "전기차충전소_관음사 휴게소", "installLocationDetail": "지붕 모서리", "category": "전기차충전소", "categoryDetail": "전기차충전소", "addressDong": "제주특별자치도 제주시 오등동", "addressDetail": "제주시 오등동 산180-3", "latitude": "33.42239", "longitude": "126.550697"},{"baseDate": "20200525", "macAddress": "937222ac73e22742f848d573e8ec5951b52f0a6746a7a9312a30b5f7add04aae", "apGroupName": "서귀포 치유의 숲", "installLocationDetail": "방문자센타 중앙 홀", "category": "숲길", "categoryDetail": "숲길", "addressDong": "제주특별자치도 서귀포시 호근동", "addressDetail": "서귀포시 산록남로 2271", "latitude": "33.29187", "longitude": "126.527899"},{"baseDate": "20200525", "macAddress": "8064ee16483cb67546919b7c94eeaf0b519b7a1f520db8c891984d347eee4f8a", "apGroupName": "전기차충전소_표선생활체육관", "installLocationDetail": "건물외벽-동", "category": "전기차충전소", "categoryDetail": "전기차충전소", "addressDong": "제주특별자치도 서귀포시 표선면 하천리", "addressDetail": "서귀포시 표선면 하천리 1832-1", "latitude": "33.354154", "longitude": "126.81513"},{"baseDate": "20200525", "macAddress": "27490b1e393a5fe82c83d70e2f04275244a3461dcc94e9f06f619a0031beb7fd", "apGroupName": "베니스랜드", "installLocationDetail": "식당", "category": "관광지", "categoryDetail": "사설관광지", "addressDong": "제주특별자치도 서귀포시 성산읍 난산리", "addressDetail": "서귀포시 성산읍 난산리 2575", "latitude": "33.415297", "longitude": "126.840807"},{"baseDate": "20200525", "macAddress": "e7bcaf04fad6657abe7895160588bb2bd31c33104a03f78bff39c3fba82a3845", "apGroupName": "모구리야영장", "installLocationDetail": "남쪽화장실 외벽  1", "category": "관광지", "categoryDetail": "공영관광지", "addressDong": "제주특별자치도 서귀포시 성산읍 난산리", "addressDetail": "서귀포시 성산읍 난산리 2960-1", "latitude": "33.406232", "longitude": "126.822064"},{"baseDate": "20200525", "macAddress": "693e0d426c022f83973f01783509685e2702842ddfa21abb60ca865a3e603640", "apGroupName": "탑동 테마거리", "installLocationDetail": "탑동사거리 관광안내소  남동", "category": "테마거리", "categoryDetail": "테마거리", "addressDong": "제주특별자치도 제주시 삼도이동", "addressDetail": "제주시 중앙로 20 ", "latitude": "33.517902", "longitude": "126.524921"},{"baseDate": "20200525", "macAddress": "2c6f1e2b9e6435868198eecb807310371ff98f7cf95be101d4914212d2e86283", "apGroupName": "모슬포중앙시장", "installLocationDetail": "상가 간판대- 북 (정민식육점)", "category": "전통시장", "categoryDetail": "전통시장", "addressDong": "제주특별자치도 서귀포시 대정읍 하모리", "addressDetail": "서귀포시 대정읍 하모리 822-7", "latitude": "33.222173", "longitude": "126.254768"},{"baseDate": "20200525", "macAddress": "48f8f7688674249a7ecc33b05c3cb36994bffd889272237a37552f961d42f0cc", "apGroupName": "제주서문시장", "installLocationDetail": "서문공설시장 아케이드상가 남쪽 입구 천정(아케이드상가) ", "category": "전통시장", "categoryDetail": "전통시장", "addressDong": "제주특별자치도 제주시 용담일동", "addressDetail": "제주시 서문로4길 13-2 ", "latitude": "33.511532", "longitude": "126.51807"},{"baseDate": "20200525", "macAddress": "599bd1757e8c9cef2736232dc3e641ba1275655af06023cc4a68b714f23a6b9d", "apGroupName": "제주러브랜드", "installLocationDetail": "매표소서", "category": "관광지", "categoryDetail": "사설관광지", "addressDong": "제주특별자치도 제주시 연동", "addressDetail": "제주시 1100로 2894-72(연동) ", "latitude": "33.451821", "longitude": "126.488275"},{"baseDate": "20200525", "macAddress": "4c6b93ed5889468d2e65c395639fd257186a2a3c64506509c19628c114e079ba", "apGroupName": "우도봉", "installLocationDetail": "우도아이스크림 건물 외벽 -동", "category": "관광지", "categoryDetail": "공영관광지", "addressDong": "제주특별자치도 제주시 우도면 연평리", "addressDetail": "제주시 우도면 연평리 343-2", "latitude": "33.49322", "longitude": "126.960153"},{"baseDate": "20200525", "macAddress": "a6d46a539ba4f3bcb732e1145c8f238fe29600d99d1c35a74eb2a4f345b0e856", "apGroupName": "누웨모루거리(구 바오젠거리)", "installLocationDetail": "삼거리 범죄예방 CCTV 폴", "category": "테마거리", "categoryDetail": "테마거리", "addressDong": "제주특별자치도 제주시 연동", "addressDetail": "제주시 연동 272-22(은남1길 46)", "latitude": "33.48956", "longitude": "126.49079"},{"baseDate": "20200525", "macAddress": "887ae1b39f2a8c03354373c924ba3603563b7b36f0557725cbcb51ae0af704fe", "apGroupName": "연동공원", "installLocationDetail": "경로당 남쪽 가로등", "category": "공원", "categoryDetail": "공원", "addressDong": "제주특별자치도 제주시 연동", "addressDetail": "제주시 연동 1369", "latitude": "33.48239", "longitude": "126.487547"},{"baseDate": "20200525", "macAddress": "01849bfbfd2f969bf6d4c3b49f3ed423365695725c5d574c2f479b369c379596", "apGroupName": "버스정류소_서회천[서]", "installLocationDetail": "정류장천정", "category": "버스정류소", "categoryDetail": "버스정류소", "addressDong": "제주특별자치도 제주시 회천동", "addressDetail": "제주시 회천동 2876-5(회천동 2924 앞)", "latitude": "33.498382", "longitude": "126.606635"},{"baseDate": "20200525", "macAddress": "9385da4712312fbbbf8a5136e281a2b9b9eed5c77180e600c5ee39fa180c050f", "apGroupName": "18코스", "installLocationDetail": "CCTV Pole 남쪽화장실방향", "category": "올레코스", "categoryDetail": "올레코스", "addressDong": "제주특별자치도 제주시 화북일동", "addressDetail": "제주시 화북일동 4269-9 (금산5길 30-5 앞)", "latitude": "33.525282", "longitude": "126.564683"},{"baseDate": "20200525", "macAddress": "b6bfdb10c5d1bea0b6d104d2505b5ab12d1e370e456608a4ce808def81487741", "apGroupName": "버스정류소_애월고등학교[북]", "installLocationDetail": "버스정류장 상부", "category": "버스정류소", "categoryDetail": "버스정류소", "addressDong": "제주특별자치도 제주시 애월읍 고내리", "addressDetail": "제주시 애월읍 고내리 830 ", "latitude": "33.462647", "longitude": "126.334592"},{"baseDate": "20200525", "macAddress": "084f1d3216e029d47d81f28c2bc85071c32d3a7632af5169e708c43e7056ae94", "apGroupName": "4코스", "installLocationDetail": "기지국 - 남원올레5코스 안내탐방센터 방향", "category": "올레코스", "categoryDetail": "올레코스", "addressDong": "제주특별자치도 서귀포시 남원읍 남원리", "addressDetail": "서귀포시 남원읍 남원리 74-5", "latitude": "33.278904", "longitude": "126.723429"},{"baseDate": "20200525", "macAddress": "4ca823a7f3282ca02640e052469b8a59b6f5e2ca6304f198d91003ab4859a4fa", "apGroupName": "18코스", "installLocationDetail": "CCTV Pole 포구양방향 서북", "category": "올레코스", "categoryDetail": "올레코스", "addressDong": "제주특별자치도 제주시 조천읍 신촌리", "addressDetail": "제주시 조천읍 신촌리 2202-1(신촌북3길 1 )", "latitude": "33.537929", "longitude": "126.618628"},{"baseDate": "20200525", "macAddress": "33d7222c93fdb8ad5afaa5741d40175fc065e2642b48ad146b1d5924b5a4e1ed", "apGroupName": "1-47호어린이공원", "installLocationDetail": "CCTV pole", "category": "공원", "categoryDetail": "공원", "addressDong": "제주특별자치도 제주시 노형동", "addressDetail": "제주시 노형동 1031-1", "latitude": "33.492229", "longitude": "126.475226"},{"baseDate": "20200525", "macAddress": "44a43014b4342a7004ea4385f56eaae5691bff4efacad928c5db89f03497d9bb", "apGroupName": "버스정류소_노형오거리(노형초등학교방면) ", "installLocationDetail": "버스정류소 천정", "category": "버스정류소", "categoryDetail": "버스정류소", "addressDong": "제주특별자치도 제주시 노형동", "addressDetail": "제주시 노형동 1287-4(마농식당앞)", "latitude": "33.485245", "longitude": "126.4779"},{"baseDate": "20200525", "macAddress": "d7d91d4fc24b9e36ab6446c1aa5b99f981e05a7e829130ba3d11e366419ed284", "apGroupName": "카멜리아힐", "installLocationDetail": "매표소 우측 외벽", "category": "관광지", "categoryDetail": "사설관광지", "addressDong": "제주특별자치도 서귀포시 안덕면 상창리", "addressDetail": "서귀포시 안덕면 상창리 271", "latitude": "33.289659", "longitude": "126.368181"},{"baseDate": "20200525", "macAddress": "dde1ccdea03903c7573a598fbc024885b7934c3531c218441e80c3ddb0ddce81", "apGroupName": "청초밭영농조합법인", "installLocationDetail": "매표소 ", "category": "관광지", "categoryDetail": "사설관광지", "addressDong": "제주특별자치도 서귀포시 표선면 성읍리", "addressDetail": "서귀포시 표선면 성읍이리로57번길 34", "latitude": "33.419659", "longitude": "126.781521"},{"baseDate": "20200525", "macAddress": "2018c7f16694964082647b5337ff676201915933f5dd973fba3f6764165fed2f", "apGroupName": "제주환상자전거길", "installLocationDetail": "방범CCTV", "category": "테마거리", "categoryDetail": "테마거리", "addressDong": "제주특별자치도 서귀포시 법환동", "addressDetail": "서귀포시 법환동 163", "latitude": "33.235889", "longitude": "126.515067"},{"baseDate": "20200525", "macAddress": "d1c39b2b54079d48ce6ef73ef81030b69d784a64eeaa6c432d67d7bb99a3eff8", "apGroupName": "문화예술마을 저지리 농어촌체험마을", "installLocationDetail": "IP주", "category": "관광지", "categoryDetail": "공영관광지", "addressDong": "제주특별자치도 제주시 한경면 저지리", "addressDetail": "제주시 한경면 저지리 1863-1", "latitude": "33.33268", "longitude": "126.256391"},{"baseDate": "20200525", "macAddress": "95a477b429524ff21cc1af09e3a1ba6686e81ef6f39082b9606d6d45ec7f5083", "apGroupName": "한라생태숲", "installLocationDetail": " 안내소 벽면 북", "category": "숲길", "categoryDetail": "숲길", "addressDong": "제주특별자치도 제주시 용강동", "addressDetail": "제주시 516로 2596(용강동)", "latitude": "33.430931", "longitude": "126.596935"},